{
  "stations": [
    {"name": "Genève-Aéroport", "lat": 46.2325, "lon": 6.1120, "tph": 4.5},
    {"name": "Vernier-Blandonnet", "lat": 46.2219, "lon": 6.0972, "tph": 84.0},
    {"name": "Genève", "lat": 46.2102, "lon": 6.1424, "tph": 25.0},
    {"name": "Genève-Sécheron", "lat": 46.2225, "lon": 6.1445, "tph": 8.0},
    {"name": "Genthod-Bellevue", "lat": 46.2567, "lon": 6.1539, "tph": 8.0},
    {"name": "Versoix", "lat": 46.2797, "lon": 6.1657, "tph": 8.0},
    {"name": "Coppet", "lat": 46.3174, "lon": 6.1878, "tph": 9.5},
    {"name": "Founex", "lat": 46.3348, "lon": 6.1949, "tph": 3.5},
    {"name": "Tannay", "lat": 46.3077, "lon": 6.1811, "tph": 8.0},
    {"name": "Mies", "lat": 46.2985, "lon": 6.1676, "tph": 8.0},
    {"name": "Nyon", "lat": 46.3844, "lon": 6.2360, "tph": 14.5},
    {"name": "Prangins", "lat": 46.3930, "lon": 6.2541, "tph": 5.5},
    {"name": "Gland", "lat": 46.4200, "lon": 6.2691, "tph": 6.5},
    {"name": "Begnins", "lat": 46.4402, "lon": 6.2477, "tph": 8.5},
    {"name": "Rolle", "lat": 46.4628, "lon": 6.3364, "tph": 4.5},
    {"name": "Perroy", "lat": 46.4639, "lon": 6.3529, "tph": 3.0},
    {"name": "Allaman", "lat": 46.4758, "lon": 6.3997, "tph": 6.0},
    {"name": "Aubonne", "lat": 46.4938, "lon": 6.3929, "tph": 11.0},
    {"name": "St-Prex", "lat": 46.4823, "lon": 6.4559, "tph": 4.0},
    {"name": "Morges", "lat": 46.5111, "lon": 6.4940, "tph": 16.0},
    {"name": "Lonay-Préverenges", "lat": 46.5231, "lon": 6.5195, "tph": 4.0},
    {"name": "Denges-Echandens", "lat": 46.5291, "lon": 6.5405, "tph": 2.0},
    {"name": "Bussigny", "lat": 46.5476, "lon": 6.5518, "tph": 9.0},
    {"name": "Renens VD", "lat": 46.5370, "lon": 6.5789, "tph": 26.5},
    {"name": "Prilly-Malley", "lat": 46.5267, "lon": 6.6026, "tph": 9.0},
    {"name": "Lausanne", "lat": 46.5168, "lon": 6.6291, "tph": 28.5},
    {"name": "Lausanne-Flon", "lat": 46.5208, "lon": 6.6303, "tph": 4.0},
    {"name": "La Conversion", "lat": 46.5131, "lon": 6.6783, "tph": 4.0},
    {"name": "Bossière", "lat": 46.5098, "lon": 6.6993, "tph": 2.0},
    {"name": "Grandvaux", "lat": 46.4969, "lon": 6.7226, "tph": 4.5},
    {"name": "Cully", "lat": 46.4886, "lon": 6.7271, "tph": 9.0},
    {"name": "Epesses", "lat": 46.4893, "lon": 6.7452, "tph": 3.0},
    {"name": "Rivaz", "lat": 46.4742, "lon": 6.7846, "tph": 3.5},
    {"name": "St-Saphorin", "lat": 46.4727, "lon": 6.7981, "tph": 0.0},
    {"name": "Vevey", "lat": 46.4630, "lon": 6.8434, "tph": 20.0},
    {"name": "La Tour-de-Peilz", "lat": 46.4555, "lon": 6.8595, "tph": 4.0},
    {"name": "Burier", "lat": 46.4479, "lon": 6.8771, "tph": 4.0},
    {"name": "Clarens", "lat": 46.4427, "lon": 6.8958, "tph": 4.0},
    {"name": "Montreux", "lat": 46.4359, "lon": 6.9104, "tph": 16.0},
    {"name": "Territet", "lat": 46.4264, "lon": 6.9227, "tph": 2.0},
    {"name": "Villeneuve VD", "lat": 46.3984, "lon": 6.9270, "tph": 8.0},
    {"name": "Aigle", "lat": 46.3169, "lon": 6.9637, "tph": 16.5},
    {"name": "Bex", "lat": 46.2515, "lon": 7.0007, "tph": 7.5},
    {"name": "Palézieux", "lat": 46.5428, "lon": 6.8379, "tph": 11.5},
    {"name": "Puidoux", "lat": 46.4938, "lon": 6.7657, "tph": 6.0},
    {"name": "Genève-Eaux-Vives", "lat": 46.2015, "lon": 6.1665, "tph": 12.5},
    {"name": "Genève-Champel", "lat": 46.1922, "lon": 6.1535, "tph": 12.5},
    {"name": "Lancy-Bachet", "lat": 46.1743, "lon": 6.1293, "tph": 12.5},
    {"name": "Lancy-Pont-Rouge", "lat": 46.1860, "lon": 6.1249, "tph": 12.0}
  ],
  "nodes": [
    {"id": 1, "name": "Geneva North", "km": 8, "lat": 46.222, "lon": 6.097, "tph": 84.0, "wci": 0.4647},
    {"id": 2, "name": "Nyon-Genolier", "km": 25, "lat": 46.384, "lon": 6.236, "tph": 14.5, "wci": 0.28},
    {"id": 3, "name": "Morges", "km": 48, "lat": 46.511, "lon": 6.494, "tph": 16.0, "wci": 0.2901},
    {"id": 4, "name": "Crissier-Bussigny", "km": 58, "lat": 46.548, "lon": 6.552, "tph": 9.0, "wci": 0.0425},
    {"id": 5, "name": "CHUV Lausanne", "km": 65, "lat": 46.517, "lon": 6.629, "tph": 28.5, "wci": 0.5536},
    {"id": 6, "name": "Montreux-Glion", "km": 85, "lat": 46.436, "lon": 6.910, "tph": 16.0, "wci": 0.339},
    {"id": 7, "name": "Rennaz", "km": 89, "lat": 46.398, "lon": 6.927, "tph": 8.0, "wci": 0.2238}
  ],
  "flow_paths": [
    {"flow": "pharma", "path": [4, 1, 3, 5, 7], "description": "Galexis Ecublens → corridor hospitals"},
    {"flow": "food", "path": [4, 5, 3, 1, 6, 7], "description": "CHUV CPA Bussigny → all nodes"},
    {"flow": "staff", "path": [1, 2, 3, 4, 5, 6, 7], "description": "Full corridor — all nodes"},
    {"flow": "patient", "path": [2, 3, 5, 6, 7], "description": "Hospital-to-hospital transfers"},
    {"flow": "postal", "path": [4, 1, 5], "description": "Eclépens/Daillens → PLEXUS → hospitals"},
    {"flow": "blood", "path": [5, 2, 4, 7], "description": "TIR Épalinges → collection circuit"},
    {"flow": "waste", "path": [1, 4, 5, 6], "description": "Hospitals → incineration (Cheneviers/TRIDEL/SATOM)"},
    {"flow": "emergency", "path": [2, 3, 5, 6, 7], "description": "SMUR bases + ambulance coverage"}
  ],
  "temporal_frequency": {
    "description": "Relative system activity by hour (0.0–1.0 scale)",
    "hours": {
      "0": 0.15, "1": 0.05, "2": 0.02, "3": 0.02, "4": 0.03, "5": 0.15,
      "6": 0.50, "7": 0.85, "8": 1.00, "9": 0.95, "10": 0.90, "11": 0.90,
      "12": 0.85, "13": 0.85, "14": 0.90, "15": 0.90, "16": 0.95, "17": 1.00,
      "18": 0.90, "19": 0.80, "20": 0.60, "21": 0.45, "22": 0.30, "23": 0.20
    }
  }
}
