ID,Nom,Type,Commune,Canton,Region,Adresse,lat_wgs84,lon_wgs84,E_LV95,N_LV95,Source,Statut_Coordonnees
1,Etablissement primaire et secondaire d'Aigle,Primaire et Secondaire,Aigle,VD,Alpes vaudoises,"Chemin de la Planchette 18, 1860 Aigle",46.319600,6.957500,2562941.96,1129914.23,DGEO Annuaire 2025-2026 (vd.ch),Oui - OSM
2,Etablissement primaire et secondaire de Bex,Primaire et Secondaire,Bex,VD,Alpes vaudoises,"Chemin Pré-de-la-Cible 3, 1880 Bex",46.252200,7.013000,2567175.81,1122397.05,DGEO Annuaire 2025-2026 (vd.ch),Oui - OSM
3,Etablissement primaire et secondaire de Château-d'Oex - Pays-d'Enhaut,Primaire et Secondaire,Château-d'Oex,VD,Alpes vaudoises,"Grand Rue 77, 1660 Château-d'Oex",46.474500,7.131800,2576434.17,1147065.95,DGEO Annuaire 2025-2026 (vd.ch),Oui - OSM
4,Etablissement primaire et secondaire Les Ormonts-Leysin,Primaire et Secondaire,Le Sépey,VD,Alpes vaudoises,"Rue de la Gare 2, 1863 Le Sépey",46.361100,7.051900,2570235.46,1134487.20,DGEO Annuaire 2025-2026 (vd.ch),Oui - OSM
5,Etablissement primaire et secondaire d'Ollon,Primaire et Secondaire,Ollon VD,VD,Alpes vaudoises,"Chemin du Collège 14, 1867 Ollon VD",46.292500,6.988400,2565304.54,1126887.55,DGEO Annuaire 2025-2026 (vd.ch),Oui - OSM
6,Etablissement primaire et secondaire de Villeneuve Haut-Lac,Primaire et Secondaire,Villeneuve VD,VD,Alpes vaudoises,"Route de la Tour-Rouge 7a, 1844 Villeneuve VD",46.398400,6.929300,2560827.01,1138687.59,DGEO Annuaire 2025-2026 (vd.ch),Oui - Google Places
7,Etablissement primaire et secondaire d'Avenches et environs,Primaire et Secondaire,Avenches,VD,Broye - Gros-de-Vaud,"Route de Sous Ville 6a, 1580 Avenches",46.879100,7.036900,2569376.74,1192076.49,DGEO Annuaire 2025-2026 (vd.ch),Oui - OSM
8,Etablissement primaire et secondaire de Bercher - Plateau du Jorat,Primaire et Secondaire,Bercher,VD,Broye - Gros-de-Vaud,"Route de Fey 16, 1038 Bercher",46.690300,6.706200,2543972.52,1171271.50,DGEO Annuaire 2025-2026 (vd.ch),Oui - OSM
9,Etablissement secondaire d'Echallens - Trois-Sapins,Secondaire,Echallens,VD,Broye - Gros-de-Vaud,"Chemin du Collège 6, 1040 Echallens",46.640200,6.647600,2539433.83,1165745.94,DGEO Annuaire 2025-2026 (vd.ch),Oui - OSM
10,Etablissement primaire d'Echallens-Emile Gardaz,Primaire,Echallens,VD,Broye - Gros-de-Vaud,"Chemin du Grand Record 50a, 1040 Echallens",46.637600,6.632800,2538297.73,1165468.47,DGEO Annuaire 2025-2026 (vd.ch),Oui - OSM
11,Etablissement primaire et secondaire du Jorat,Primaire et Secondaire,Mézières VD,VD,Broye - Gros-de-Vaud,"Chemin du Raffort 11, 1083 Mézières VD",46.586300,6.771400,2548861.32,1159666.05,DGEO Annuaire 2025-2026 (vd.ch),Oui - OSM/NPA
12,Etablissement primaire de Moudon - Lucens,Primaire,Moudon,VD,Broye - Gros-de-Vaud,"Avenue du Fey 40, 1510 Moudon",46.668400,6.796000,2550821.58,1168776.71,DGEO Annuaire 2025-2026 (vd.ch),Oui - OSM/NPA
13,Etablissement secondaire de Moudon - Lucens,Secondaire,Moudon,VD,Broye - Gros-de-Vaud,"Avenue de Lucens 3b, 1510 Moudon",46.668000,6.794500,2550706.43,1168733.19,DGEO Annuaire 2025-2026 (vd.ch),Oui - OSM/NPA
14,Etablissement secondaire de Payerne et environs,Secondaire,Payerne,VD,Broye - Gros-de-Vaud,"Avenue de la Promenade 11, 1530 Payerne",46.820600,6.935700,2561620.80,1185617.83,DGEO Annuaire 2025-2026 (vd.ch),Oui - OSM/NPA
15,Etablissement primaire de Payerne-Corcelles et environs,Primaire,Payerne,VD,Broye - Gros-de-Vaud,"Rue Derrière la Tour 6, 1530 Payerne",46.819400,6.937500,2561757.30,1185483.55,DGEO Annuaire 2025-2026 (vd.ch),Oui - OSM/NPA
16,Etablissement primaire de Payerne-Granges et environs,Primaire,Payerne,VD,Broye - Gros-de-Vaud,"Rue des Vernes 21, 1530 Payerne",46.816000,6.932000,2561335.15,1185108.29,DGEO Annuaire 2025-2026 (vd.ch),Oui - OSM/NPA
17,Etablissement primaire de Villars-le-Terroir - Poliez-Pittet,Primaire,Villars-le-Terroir,VD,Broye - Gros-de-Vaud,"Chemin de Champ-Court 2, 1040 Villars-le-Terroir",46.656300,6.638900,2538786.01,1167542.39,DGEO Annuaire 2025-2026 (vd.ch),Oui - OSM/NPA
18,Etablissement primaire et secondaire de Bussigny et Villars-Ste-Croix,Primaire et Secondaire,Bussigny,VD,CRENOL,"Rue des Collèges 2, 1030 Bussigny",46.551300,6.552400,2532033.29,1155941.97,DGEO Annuaire 2025-2026 (vd.ch),Oui - Google Places
19,Etablissement primaire et secondaire de Chavannes-près-Renens et de St-Sulpice,Primaire et Secondaire,Chavannes-près-Renens,VD,CRENOL,"Avenue de la Concorde 1, 1022 Chavannes-près-Renens",46.532600,6.574700,2533720.50,1153844.19,DGEO Annuaire 2025-2026 (vd.ch),Oui - Google Places
20,Etablissement primaire et secondaire de Cheseaux-sur-Lausanne-La Chamberonne,Primaire et Secondaire,Cheseaux-sur-Lausanne,VD,CRENOL,"Ch. Derrière-la-Ville 3, 1033 Cheseaux-sur-Lausanne",46.560800,6.608000,2536308.35,1156951.25,DGEO Annuaire 2025-2026 (vd.ch),Oui - OSM/NPA
21,Etablissement primaire et secondaire de Crissier,Primaire et Secondaire,Crissier,VD,CRENOL,"Route de Marcolet 42, 1023 Crissier",46.545000,6.575200,2533774.06,1155222.14,DGEO Annuaire 2025-2026 (vd.ch),Oui - Google Places
22,Etablissement primaire et secondaire de Cugy et environs,Primaire et Secondaire,Cugy VD,VD,CRENOL,"Chemin de la Combe 5, 1053 Cugy VD",46.571500,6.654000,2539847.33,1158104.29,DGEO Annuaire 2025-2026 (vd.ch),Oui - OSM/NPA
23,Etablissement primaire et secondaire d'Ecublens,Primaire et Secondaire,Ecublens VD,VD,CRENOL,"Route du Bois 6, 1024 Ecublens VD",46.531700,6.566600,2533098.00,1153751.03,DGEO Annuaire 2025-2026 (vd.ch),Oui - Google Places
24,Etablissement primaire et secondaire d'Epalinges,Primaire et Secondaire,Epalinges,VD,CRENOL,"Chemin du Bois-Murat 15, 1066 Epalinges",46.537600,6.661200,2540361.87,1154330.46,DGEO Annuaire 2025-2026 (vd.ch),Oui - OSM/NPA
25,Etablissement primaire et secondaire du Mont-sur-Lausanne,Primaire et Secondaire,Le Mont-sur-Lausanne,VD,CRENOL,"Route de la Blécherette 5, 1052 Le Mont-sur-Lausanne",46.552000,6.629000,2537908.41,1155956.18,DGEO Annuaire 2025-2026 (vd.ch),Oui - OSM/NPA
26,Etablissement primaire et secondaire de Prilly,Primaire et Secondaire,Prilly,VD,CRENOL,"Chemin de l'Union 1, 1008 Prilly",46.536300,6.607300,2536225.77,1154228.41,DGEO Annuaire 2025-2026 (vd.ch),Oui - Google Places
27,"Etablissement primaire de Prilly, Romanel-sur-Lausanne et Jouxtens-Mézery",Primaire,Prilly,VD,CRENOL,"Place du Collège 3, 1008 Prilly",46.534600,6.603800,2535955.27,1154042.30,DGEO Annuaire 2025-2026 (vd.ch),Oui - Google Places
28,Etablissement primaire de Renens-Est,Primaire,Renens VD,VD,CRENOL,"Avenue du 24-Janvier 24, 1020 Renens VD",46.536300,6.589800,2534883.35,1154242.81,DGEO Annuaire 2025-2026 (vd.ch),Oui - Google Places
29,Etablissement primaire de Renens-Ouest,Primaire,Renens VD,VD,CRENOL,"Rue du Bugnon 1, 1020 Renens VD",46.539700,6.588500,2534787.73,1154621.83,DGEO Annuaire 2025-2026 (vd.ch),Oui - Google Places
30,Etablissement secondaire de Renens,Secondaire,Renens VD,VD,CRENOL,"Rue du Léman 12, 1020 Renens VD",46.530800,6.586000,2534585.20,1153634.61,DGEO Annuaire 2025-2026 (vd.ch),Oui - Google Places
31,Etablissement primaire et secondaire de Chavornay,Primaire et Secondaire,Chavornay,VD,Jura - Nord vaudois,"Rue du Verneret 12, 1373 Chavornay",46.705000,6.570800,2533633.65,1173011.36,DGEO Annuaire 2025-2026 (vd.ch),Oui - OSM/NPA
32,Etablissement primaire et secondaire de Grandson,Primaire et Secondaire,Grandson,VD,Jura - Nord vaudois,"Rue du Jura 27, 1422 Grandson",46.809000,6.646000,2539501.23,1184511.24,DGEO Annuaire 2025-2026 (vd.ch),Oui - OSM/NPA
33,Etablissement primaire d'Orbe et environs,Primaire,Orbe,VD,Jura - Nord vaudois,"Chemin de Chantemerle 17a, 1350 Orbe",46.724000,6.531000,2530614.61,1175157.89,DGEO Annuaire 2025-2026 (vd.ch),Oui - OSM/NPA
34,Etablissement secondaire d'Orbe et environs,Secondaire,Orbe,VD,Jura - Nord vaudois,"Route de Valeyres 1a, 1350 Orbe",46.728000,6.533000,2530772.64,1175600.76,DGEO Annuaire 2025-2026 (vd.ch),Oui - OSM/NPA
35,Etablissement primaire et secondaire de Sainte-Croix et environs,Primaire et Secondaire,Ste-Croix,VD,Jura - Nord vaudois,"Avenue de la Gare 10, 1450 Ste-Croix",46.822000,6.506000,2528833.25,1186074.01,DGEO Annuaire 2025-2026 (vd.ch),Oui - OSM/NPA
36,Etablissement primaire et secondaire de la Vallée de Joux,Primaire et Secondaire,Le Sentier,VD,Jura - Nord vaudois,"Rue des Ecoles 2, 1347 Le Sentier",46.604000,6.231000,2507476.75,1162129.10,DGEO Annuaire 2025-2026 (vd.ch),Oui - OSM/NPA
37,"Etablissement primaire et secondaire de Vallorbe, Ballaigues et Vallon du Nozon",Primaire et Secondaire,Vallorbe,VD,Jura - Nord vaudois,"Rue Louis-Ruchonnet 33, 1337 Vallorbe",46.712000,6.377000,2518824.49,1173971.98,DGEO Annuaire 2025-2026 (vd.ch),Oui - OSM/NPA
38,Etablissement secondaire d'Yverdon-les-Bains - de Felice,Secondaire,Yverdon-les-Bains,VD,Jura - Nord vaudois,"Rue de l'Arsenal 14, 1400 Yverdon-les-Bains",46.780000,6.641000,2539086.78,1181291.41,DGEO Annuaire 2025-2026 (vd.ch),Oui - OSM/NPA
39,Etablissement primaire d'Yverdon-les-Bains - Edmond-Gilliard,Primaire,Yverdon-les-Bains,VD,Jura - Nord vaudois,"Rue Pestalozzi 2, 1400 Yverdon-les-Bains",46.778700,6.635000,2538627.11,1181151.58,DGEO Annuaire 2025-2026 (vd.ch),Oui - OSM/NPA
40,Etablissement secondaire d'Yverdon-les-Bains - Léon-Michaud,Secondaire,Yverdon-les-Bains,VD,Jura - Nord vaudois,"Rue Léon-Michaud 3, 1400 Yverdon-les-Bains",46.779000,6.632000,2538398.36,1181187.28,DGEO Annuaire 2025-2026 (vd.ch),Oui - OSM/NPA
41,Etablissement primaire d'Yverdon-les-Bains - Pestalozzi,Primaire,Yverdon-les-Bains,VD,Jura - Nord vaudois,"Rue Pestalozzi 2, 1400 Yverdon-les-Bains",46.778700,6.635000,2538627.11,1181151.58,DGEO Annuaire 2025-2026 (vd.ch),Oui - OSM/NPA
42,Etablissement primaire et secondaire d'Yvonand et environs,Primaire et Secondaire,Yvonand,VD,Jura - Nord vaudois,"Avenue des Sports 13, 1462 Yvonand",46.800000,6.745000,2547048.44,1183439.06,DGEO Annuaire 2025-2026 (vd.ch),Oui - OSM/NPA
43,Etablissement primaire et secondaire d'Aubonne et environs,Primaire et Secondaire,Aubonne,VD,La Dôle,"Chemin du Collège 9, 1170 Aubonne",46.493900,6.395400,2519908.48,1149709.92,DGEO Annuaire 2025-2026 (vd.ch),Oui - Google Places
44,Etablissement primaire et secondaire de Begnins - L'Esplanade,Primaire et Secondaire,Begnins,VD,La Dôle,"Route de Saint-Cergue 5, 1268 Begnins",46.441000,6.266000,2509886.89,1143970.44,DGEO Annuaire 2025-2026 (vd.ch),Oui - OSM/NPA
45,Etablissement primaire de Coppet - Terre-Sainte,Primaire,Coppet,VD,La Dôle,"Chemin du Chaucey 7, 1296 Coppet",46.322600,6.187100,2503613.99,1130903.98,DGEO Annuaire 2025-2026 (vd.ch),Oui - Google Places
46,Etablissement secondaire de Coppet - Terre-Sainte,Secondaire,Coppet,VD,La Dôle,"Route de Founex 31, 1296 Coppet",46.322600,6.187100,2503613.99,1130903.98,DGEO Annuaire 2025-2026 (vd.ch),Oui - Google Places
47,Etablissement primaire et secondaire de Crassier - Elisabeth de Portes,Primaire et Secondaire,Crassier,VD,La Dôle,"Rue de la Tour 55, 1263 Crassier",46.379000,6.170000,2502398.68,1137194.04,DGEO Annuaire 2025-2026 (vd.ch),Oui - OSM/NPA
48,Etablissement primaire et secondaire de Genolier et environs,Primaire et Secondaire,Genolier,VD,La Dôle,"Chemin de la Brégentenaz 11, 1272 Genolier",46.435000,6.234000,2507417.75,1143340.83,DGEO Annuaire 2025-2026 (vd.ch),Oui - OSM/NPA
49,Etablissement primaire de Gimel - Etoy,Primaire,Etoy,VD,La Dôle,"Chemin des Communaux 1, 1163 Etoy",46.483000,6.423100,2522019.23,1148470.38,DGEO Annuaire 2025-2026 (vd.ch),Oui - Google Places
50,Etablissement secondaire de Gland - Grand-Champ,Secondaire,Gland,VD,La Dôle,"Rue du Collège , 1196 Gland",46.421900,6.259800,2509378.53,1141854.57,DGEO Annuaire 2025-2026 (vd.ch),Oui - Google Places
51,Etablissement primaire de Gland,Primaire,Gland,VD,La Dôle,"Chemin de la Perroude 1, 1196 Gland",46.424900,6.260900,2509468.10,1142186.76,DGEO Annuaire 2025-2026 (vd.ch),Oui - Google Places
52,Etablissement secondaire de Nyon - Marens,Secondaire,Nyon,VD,La Dôle,"Route du Stand 5, 1260 Nyon",46.382200,6.226000,2506712.12,1137481.51,DGEO Annuaire 2025-2026 (vd.ch),Oui - Google Places
53,Etablissement primaire de Nyon Jura et Prangins,Primaire,Nyon,VD,La Dôle,"Chemin de Précossy 6, 1260 Nyon",46.389700,6.225300,2506671.18,1138315.98,DGEO Annuaire 2025-2026 (vd.ch),Oui - Google Places
54,Etablissement primaire de Nyon Léman,Primaire,Nyon,VD,La Dôle,"Chemin de Prélaz 5, 1260 Nyon",46.387600,6.237000,2507567.48,1138068.69,DGEO Annuaire 2025-2026 (vd.ch),Oui - Google Places
55,Etablissement primaire de Rolle - Cœur de la Côte,Primaire,Rolle,VD,La Dôle,"Avenue Général-Guisan 23, 1180 Rolle",46.458000,6.332700,2515038.86,1145785.52,DGEO Annuaire 2025-2026 (vd.ch),Oui - Google Places
56,Etablissement primaire et secondaire de Rolle,Primaire et Secondaire,Rolle,VD,La Dôle,"Avenue Général-Guisan 23, 1180 Rolle",46.458000,6.332700,2515038.86,1145785.52,DGEO Annuaire 2025-2026 (vd.ch),Oui - Google Places
57,Etablissement primaire de Lausanne - Beaulieu,Primaire,Lausanne,VD,Lausanne,"Avenue des Bergières 17, 1004 Lausanne",46.527800,6.623600,2537466.31,1153270.42,DGEO Annuaire 2025-2026 (vd.ch),Oui - Google Places
58,Etablissement primaire et secondaire Lausanne - Belvédère,Primaire et Secondaire,Lausanne,VD,Lausanne,"Chemin des Croix-Rouges 24, 1007 Lausanne",46.520100,6.619500,2537142.80,1152417.77,DGEO Annuaire 2025-2026 (vd.ch),Oui - Google Places
59,Etablissement primaire et secondaire de Lausanne - Bergières,Primaire et Secondaire,Lausanne,VD,Lausanne,"Avenue des Bergières 44, 1004 Lausanne",46.531800,6.621700,2537325.17,1153716.57,DGEO Annuaire 2025-2026 (vd.ch),Oui - Google Places
60,Etablissement primaire et secondaire de Lausanne - Béthusy,Primaire et Secondaire,Lausanne,VD,Lausanne,"Avenue de Béthusy 7, 1005 Lausanne",46.521700,6.642900,2538940.15,1152577.11,DGEO Annuaire 2025-2026 (vd.ch),Oui - Google Places
61,Etablissement primaire et secondaire de Lausanne - CF Ramuz,Primaire et Secondaire,Lausanne,VD,Lausanne,"Chemin d'Entre-Bois 13b, 1018 Lausanne",46.537100,6.630900,2538037.04,1154298.40,DGEO Annuaire 2025-2026 (vd.ch),Oui - Google Places
62,Etablissement primaire de Lausanne - Coteau Fleuri,Primaire,Lausanne,VD,Lausanne,"Chemin de la Grangette 77, 1010 Lausanne",46.536100,6.660000,2540268.17,1154164.63,DGEO Annuaire 2025-2026 (vd.ch),Oui - Google Places
63,Etablissement primaire de Lausanne - Entre-Bois,Primaire,Lausanne,VD,Lausanne,"Chemin d'Entre-Bois 13b, 1018 Lausanne",46.537100,6.630900,2538037.04,1154298.40,DGEO Annuaire 2025-2026 (vd.ch),Oui - Google Places
64,Etablissement primaire de Lausanne - Floréal,Primaire,Lausanne,VD,Lausanne,"Avenue de Cour 14, 1007 Lausanne",46.512900,6.623600,2537449.07,1151614.14,DGEO Annuaire 2025-2026 (vd.ch),Oui - Google Places
65,Etablissement primaire et secondaire Lausanne - I.-de-Montolieu,Primaire et Secondaire,Lausanne,VD,Lausanne,"Chemin des Abeilles 11, 1010 Lausanne",46.541000,6.647000,2539276.43,1154719.31,DGEO Annuaire 2025-2026 (vd.ch),Oui - Google Places
66,Etablissement primaire de Lausanne - La Sallaz,Primaire,Lausanne,VD,Lausanne,"Avenue de la Sallaz 38, 1010 Lausanne",46.530100,6.645600,2539156.78,1153508.76,DGEO Annuaire 2025-2026 (vd.ch),Oui - Google Places
67,Etablissement primaire et secondaire de Lausanne - L'Elysée,Primaire et Secondaire,Lausanne,VD,Lausanne,"Avenue de l'Elysée 6, 1006 Lausanne",46.510200,6.631800,2538075.27,1151307.50,DGEO Annuaire 2025-2026 (vd.ch),Oui - Google Places
68,Etablissement primaire de Lausanne - Mon-Repos,Primaire,Lausanne,VD,Lausanne,"Avenue de Béthusy 12, 1005 Lausanne",46.520800,6.641500,2538831.71,1152478.16,DGEO Annuaire 2025-2026 (vd.ch),Oui - Google Places
69,Etablissement primaire de Lausanne - Pierrefleur,Primaire,Lausanne,VD,Lausanne,"Chemin du Boisy 8, 1004 Lausanne",46.533400,6.617000,2536966.47,1153898.20,DGEO Annuaire 2025-2026 (vd.ch),Oui - Google Places
70,Etablissement primaire de Lausanne - Prélaz,Primaire,Lausanne,VD,Lausanne,"Chemin de Renens 1, 1004 Lausanne",46.526700,6.615900,2536874.27,1153154.32,DGEO Annuaire 2025-2026 (vd.ch),Oui - Google Places
71,Etablissement primaire et secondaire de Lausanne - Villamont,Primaire et Secondaire,Lausanne,VD,Lausanne,"Chemin des Magnolias 6, 1005 Lausanne",46.518900,6.638400,2538591.69,1152269.39,DGEO Annuaire 2025-2026 (vd.ch),Oui - Google Places
72,Etablissement primaire et secondaire de Blonay - Saint-Légier,Primaire et Secondaire,Blonay,VD,Lavaux-Riviera,"Chemin de Bahyse 14, 1807 Blonay",46.466600,6.896200,2558333.90,1146285.97,DGEO Annuaire 2025-2026 (vd.ch),Oui - Google Places
73,Etablissement primaire et secondaire de centre Lavaux,Primaire et Secondaire,Puidoux,VD,Lavaux-Riviera,"Route du Verney 22, 1070 Puidoux",46.492400,6.766500,2548396.19,1149231.20,DGEO Annuaire 2025-2026 (vd.ch),Oui - Google Places
74,Etablissement primaire et secondaire de Corsier-sur-Vevey et environs,Primaire et Secondaire,Corsier-sur-Vevey,VD,Lavaux-Riviera,"Rue du Collège 7, 1804 Corsier-sur-Vevey",46.471300,6.845300,2554428.18,1146836.79,DGEO Annuaire 2025-2026 (vd.ch),Oui - Google Places
75,Etablissement primaire et secondaire de La Tour-de-Peilz,Primaire et Secondaire,La Tour-de-Peilz,VD,Lavaux-Riviera,"Rue du Collège 6, 1814 La Tour-de-Peilz",46.453600,6.858600,2555435.10,1144861.57,DGEO Annuaire 2025-2026 (vd.ch),Oui - Google Places
76,Etablissement primaire et secondaire de Lutry,Primaire et Secondaire,Lutry,VD,Lavaux-Riviera,"Chemin des Pâles 57, 1095 Lutry",46.507800,6.684800,2542140.31,1151000.18,DGEO Annuaire 2025-2026 (vd.ch),Oui - Google Places
77,Etablissement primaire et secondaire de Montreux-Est,Primaire et Secondaire,Montreux,VD,Lavaux-Riviera,"Rue de la Gare 33, 1820 Montreux",46.435100,6.913200,2559616.18,1142775.44,DGEO Annuaire 2025-2026 (vd.ch),Oui - Google Places
78,Etablissement primaire et secondaire de Montreux-Ouest,Primaire et Secondaire,Clarens,VD,Lavaux-Riviera,"Chemin des Vignes 12, 1815 Clarens",46.444900,6.898900,2558524.65,1143872.31,DGEO Annuaire 2025-2026 (vd.ch),Oui - Google Places
79,Etablissement primaire et secondaire d'Oron - Palézieux,Primaire et Secondaire,Oron-la-Ville,VD,Lavaux-Riviera,"Route de Lausanne 10, 1610 Oron-la-Ville",46.572000,6.824000,2552880.14,1158043.43,DGEO Annuaire 2025-2026 (vd.ch),Oui - OSM/NPA
80,Etablissement primaire de Pully - Paudex - Belmont,Primaire,Pully,VD,Lavaux-Riviera,"Avenue C.F. Ramuz 43, 1009 Pully",46.509300,6.650200,2539486.41,1151193.07,DGEO Annuaire 2025-2026 (vd.ch),Oui - Google Places
81,Etablissement secondaire de Pully,Secondaire,Pully,VD,Lavaux-Riviera,"Chemin du Fau-blanc 15, 1009 Pully",46.513000,6.660000,2540242.64,1151596.84,DGEO Annuaire 2025-2026 (vd.ch),Oui - Google Places
82,Etablissement primaire de Vevey,Primaire,Vevey,VD,Lavaux-Riviera,"Rue du Torrent 27, 1800 Vevey",46.461300,6.838900,2553928.12,1145728.92,DGEO Annuaire 2025-2026 (vd.ch),Oui - Google Places
83,Etablissement primaire et secondaire de Vevey,Primaire et Secondaire,Vevey,VD,Lavaux-Riviera,"Rue du Collège 30, 1800 Vevey",46.459300,6.847600,2554594.76,1145501.51,DGEO Annuaire 2025-2026 (vd.ch),Oui - Google Places
84,Etablissement primaire et secondaire d'Apples - Bière et environs,Primaire et Secondaire,Apples,VD,Venoge-Lac,"Chemin des Collèges 5, 1143 Apples",46.543000,6.428000,2522481.51,1155134.88,DGEO Annuaire 2025-2026 (vd.ch),Oui - OSM/NPA
85,Etablissement secondaire de Cossonay et Penthalaz - Pré aux Moines,Secondaire,Cossonay-Ville,VD,Venoge-Lac,"Pré aux Moines 5, 1304 Cossonay-Ville",46.615000,6.506000,2528559.29,1163064.04,DGEO Annuaire 2025-2026 (vd.ch),Oui - OSM/NPA
86,Etablissement primaire de Cossonay Veyron-Venoge,Primaire,Cossonay-Ville,VD,Venoge-Lac,"Route d'Aubonne 7, 1304 Cossonay-Ville",46.613000,6.504000,2528403.44,1162843.55,DGEO Annuaire 2025-2026 (vd.ch),Oui - OSM/NPA
87,Etablissement primaire et secondaire de La Sarraz et environs,Primaire et Secondaire,La Sarraz,VD,Venoge-Lac,"Rue des Guébettes 2, 1315 La Sarraz",46.658000,6.513000,2529151.95,1167837.49,DGEO Annuaire 2025-2026 (vd.ch),Oui - OSM/NPA
88,Etablissement secondaire de Morges - Beausobre,Secondaire,Morges,VD,Venoge-Lac,"Chemin de la Grosse-Pierre 1, 1110 Morges",46.517000,6.500800,2528030.56,1152175.34,DGEO Annuaire 2025-2026 (vd.ch),Oui - Google Places
89,Etablissement primaire de Morges-Est,Primaire,Morges,VD,Venoge-Lac,"Avenue de Chanel 51, 1110 Morges",46.517700,6.497400,2527770.60,1152256.28,DGEO Annuaire 2025-2026 (vd.ch),Oui - Google Places
90,Etablissement primaire de Morges-Ouest,Primaire,Morges,VD,Venoge-Lac,"Chemin de Tolochenaz 9, 1110 Morges",46.510400,6.482900,2526648.04,1151458.31,DGEO Annuaire 2025-2026 (vd.ch),Oui - Google Places
91,Etablissement primaire de Penthalaz - Venoge,Primaire,Penthalaz,VD,Venoge-Lac,"Chemin du Collège 1, 1305 Penthalaz",46.591000,6.530000,2530366.68,1160374.63,DGEO Annuaire 2025-2026 (vd.ch),Oui - OSM/NPA
92,Etablissement primaire et secondaire de Préverenges et environs,Primaire et Secondaire,Préverenges,VD,Venoge-Lac,"Rue des Voiles du Léman 4, 1028 Préverenges",46.515800,6.526700,2530016.47,1152018.48,DGEO Annuaire 2025-2026 (vd.ch),Oui - Google Places
93,Etablissement primaire et secondaire de Saint-Prex et environs,Primaire et Secondaire,St-Prex,VD,Venoge-Lac,"Chemin du Cherrat 7, 1162 St-Prex",46.486500,6.454800,2524458.15,1148828.36,DGEO Annuaire 2025-2026 (vd.ch),Oui - Google Places
94,CO de l'Aubépine,Secondaire (CO),Genève,GE,Canton de Genève,"Rue de l'Aubépine 21, 1205 Genève",46.188200,6.147100,2500287.47,1116015.41,DIP Genève - edu.ge.ch/secondaire1,Oui - Google Places
95,CO de Bois-Caran,Secondaire (CO),Collonge-Bellerive,GE,Canton de Genève,"Chemin du Bois-Caran 40, 1245 Collonge-Bellerive",46.248100,6.198900,2504391.65,1122608.78,DIP Genève - edu.ge.ch/secondaire1,Oui - Google Places
96,CO de Budé,Secondaire (CO),Genève,GE,Canton de Genève,"Chemin Briquet 4, 1209 Genève",46.225100,6.127200,2498819.90,1120142.36,DIP Genève - edu.ge.ch/secondaire1,Oui - Google Places
97,CO de Cayla,Secondaire (CO),Genève,GE,Canton de Genève,"Chemin William-Lescaze 8, 1203 Genève",46.205500,6.120500,2498266.38,1117972.50,DIP Genève - edu.ge.ch/secondaire1,Oui - Google Places
98,CO des Colombières,Secondaire (CO),Versoix,GE,Canton de Genève,"Chemin des Colombières 4, 1290 Versoix",46.278900,6.162800,2501663.63,1126076.90,DIP Genève - edu.ge.ch/secondaire1,Oui - Google Places
99,CO des Coudriers,Secondaire (CO),Genève,GE,Canton de Genève,"Avenue de Joli-Mont 15A, 1209 Genève",46.220300,6.116500,2497985.45,1119622.72,DIP Genève - edu.ge.ch/secondaire1,Oui - Google Places
100,CO de Drize,Secondaire (CO),Carouge,GE,Canton de Genève,"Route de Drize 8, 1227 Carouge",46.175400,6.137600,2499530.47,1114604.83,DIP Genève - edu.ge.ch/secondaire1,Oui - Google Places
101,CO de la Florence,Secondaire (CO),Genève,GE,Canton de Genève,"Chemin du Velours 16, 1208 Genève",46.191800,6.169000,2501984.57,1116387.92,DIP Genève - edu.ge.ch/secondaire1,Oui - Google Places
102,CO du Foron,Secondaire (CO),Thônex,GE,Canton de Genève,"Chemin du Foron 43, 1226 Thônex",46.196500,6.210500,2505196.26,1116859.27,DIP Genève - edu.ge.ch/secondaire1,Oui - Google Places
103,CO de la Golette,Secondaire (CO),Meyrin,GE,Canton de Genève,"Rue de la Golette 17, 1217 Meyrin",46.228700,6.076300,2494900.23,1120609.50,DIP Genève - edu.ge.ch/secondaire1,Oui - Google Places
104,CO de la Gradelle,Secondaire (CO),Chêne-Bougeries,GE,Canton de Genève,"Chemin du Pré-du-Couvent 5, 1224 Chêne-Bougeries",46.202600,6.181900,2502999.61,1117572.30,DIP Genève - edu.ge.ch/secondaire1,Oui - Google Places
105,CO des Grandes-Communes,Secondaire (CO),Petit-Lancy,GE,Canton de Genève,"Chemin Gérard-De-Ternier 20, 1213 Petit-Lancy",46.193900,6.106800,2497187.21,1116701.05,DIP Genève - edu.ge.ch/secondaire1,Oui - Google Places
106,CO du Marais,Secondaire (CO),Vernier (Le Lignon),GE,Canton de Genève,"Avenue du Lignon 55, 1219 Le Lignon",46.206000,6.096000,2496376.62,1118060.18,DIP Genève - edu.ge.ch/secondaire1,Non - Approximatif
107,CO de Montbrillant,Secondaire (CO),Genève,GE,Canton de Genève,"Rue de Montbrillant 29, 1201 Genève",46.214100,6.140800,2499848.81,1118902.24,DIP Genève - edu.ge.ch/secondaire1,Oui - Google Places
108,CO de Pinchat,Secondaire (CO),Carouge,GE,Canton de Genève,"Chemin Charles-Poluzzi 50, 1227 Carouge",46.180900,6.148300,2500366.74,1115202.49,DIP Genève - edu.ge.ch/secondaire1,Oui - Google Places
109,CO du Renard,Secondaire (CO),Vernier,GE,Canton de Genève,"Avenue du Lignon 55, 1219 Vernier",46.205800,6.095800,2496360.81,1118038.22,DIP Genève - edu.ge.ch/secondaire1,Non - Approximatif
110,CO de Sécheron,Secondaire (CO),Genève,GE,Canton de Genève,"Avenue Blanc 1, 1202 Genève",46.217700,6.146100,2500264.36,1119295.62,DIP Genève - edu.ge.ch/secondaire1,Oui - Google Places
111,CO des Voirets,Secondaire (CO),Plan-les-Ouates,GE,Canton de Genève,"Chemin des Voirets 22, 1228 Plan-les-Ouates",46.172800,6.116700,2497911.80,1114342.85,DIP Genève - edu.ge.ch/secondaire1,Oui - Google Places
112,CO du Vuillonnex,Secondaire (CO),Confignon,GE,Canton de Genève,"Chemin de Sous le Clos 3, 1232 Confignon",46.177400,6.081100,2495171.70,1114901.15,DIP Genève - edu.ge.ch/secondaire1,Oui - Google Places
113,EP Allobroges / Hugo-de-Senger,Primaire,Genève,GE,Canton de Genève,"Rue des Allobroges 3, 1205 Genève",46.193000,6.139500,2499709.62,1116558.64,DIP Genève - edu.ge.ch/primaire,Non - Géocodage adresse
114,EP Anières / Corsier / Gy / Hermance / Jussy / Presinge,Primaire,Anières,GE,Canton de Genève,"Route d'Hermance 233, 1247 Anières",46.272700,6.225700,2506500.61,1125310.76,DIP Genève - edu.ge.ch/primaire,Non - Géocodage adresse
115,EP Avanchets,Primaire,Genève (Les Avanchets),GE,Canton de Genève,"Avenue du Parc 52, 1219 Le Lignon",46.217000,6.105000,2497091.97,1119270.96,DIP Genève - edu.ge.ch/primaire,Non - Géocodage adresse
116,EP Avully / Aire-la-Ville / Cartigny / Chancy,Primaire,Avully,GE,Canton de Genève,"Route du Moulin-Fabry 4, 1237 Avully",46.177700,6.009000,2489605.42,1115033.51,DIP Genève - edu.ge.ch/primaire,Non - Géocodage adresse
117,EP Bellavista / Boudines,Primaire,Petit-Lancy,GE,Canton de Genève,"Chemin des Boudines 5, 1213 Petit-Lancy",46.189500,6.117500,2498004.88,1116198.01,DIP Genève - edu.ge.ch/primaire,Non - Géocodage adresse
118,EP Bellevue / Genthod,Primaire,Bellevue,GE,Canton de Genève,"Chemin du Château-de-Bellevue 2, 1293 Bellevue",46.255400,6.158700,2501304.98,1123470.03,DIP Genève - edu.ge.ch/primaire,Non - Géocodage adresse
119,EP Bernex,Primaire,Bernex,GE,Canton de Genève,"Chemin de Luchepelet 11, 1233 Bernex",46.178500,6.073700,2494602.46,1115033.34,DIP Genève - edu.ge.ch/primaire,Non - Géocodage adresse
120,EP Bois-des-Arts / Adrien-Jeandin,Primaire,Thônex,GE,Canton de Genève,"Avenue Adrien-Jeandin 22, 1226 Thônex",46.200500,6.204000,2504701.55,1117311.76,DIP Genève - edu.ge.ch/primaire,Non - Géocodage adresse
121,EP Bois-Gourmand / Pinchat,Primaire,Carouge,GE,Canton de Genève,"Chemin de Pinchat 22, 1227 Carouge",46.180800,6.148300,2500366.56,1115191.38,DIP Genève - edu.ge.ch/primaire,Non - Géocodage adresse
122,EP Bon-Séjour / Ami-Argand / Montfleury,Primaire,Pregny-Chambésy,GE,Canton de Genève,"Chemin de l'Impératrice 18, 1292 Pregny-Chambésy",46.231000,6.144000,2500126.76,1120776.59,DIP Genève - edu.ge.ch/primaire,Non - Géocodage adresse
123,EP Bosson / Onex-Village,Primaire,Onex,GE,Canton de Genève,"Chemin du Bosson 1, 1213 Onex",46.187000,6.102000,2496803.62,1115940.43,DIP Genève - edu.ge.ch/primaire,Non - Géocodage adresse
124,EP Caroline / Cérésole / Morgines,Primaire,Genève,GE,Canton de Genève,"Boulevard des Philosophes 17, 1205 Genève",46.198500,6.141000,2499835.53,1117168.04,DIP Genève - edu.ge.ch/primaire,Non - Géocodage adresse
125,EP Cayla / Europe,Primaire,Chêne-Bourg,GE,Canton de Genève,"Avenue du Petit-Senn 16, 1225 Chêne-Bourg",46.199000,6.197000,2504158.65,1117153.57,DIP Genève - edu.ge.ch/primaire,Non - Géocodage adresse
126,EP Champ-Joly / Pré-du-Camp,Primaire,Plan-les-Ouates,GE,Canton de Genève,"Chemin du Champ-Joly 2, 1228 Plan-les-Ouates",46.167000,6.115000,2497769.64,1113700.40,DIP Genève - edu.ge.ch/primaire,Non - Géocodage adresse
127,EP Champs-Fréchets / Cointrin / Vergers,Primaire,Meyrin,GE,Canton de Genève,"Chemin des Champs-Fréchets 17, 1217 Meyrin",46.232000,6.081000,2495269.13,1120970.00,DIP Genève - edu.ge.ch/primaire,Non - Géocodage adresse
128,EP Charmilles / Charles-Giron / Jardins-du-Rhône,Primaire,Genève,GE,Canton de Genève,"Avenue des Charmilles 10, 1203 Genève",46.209500,6.128000,2498852.61,1118407.39,DIP Genève - edu.ge.ch/primaire,Non - Géocodage adresse
129,EP Chêne-Bougeries,Primaire,Chêne-Bougeries,GE,Canton de Genève,"Chemin de Grange-Falquet 7, 1224 Chêne-Bougeries",46.201000,6.187000,2503390.37,1117388.16,DIP Genève - edu.ge.ch/primaire,Non - Géocodage adresse
130,EP Chêne-Bourg,Primaire,Chêne-Bourg,GE,Canton de Genève,"Place Favre 1, 1225 Chêne-Bourg",46.198000,6.194000,2503925.33,1117046.09,DIP Genève - edu.ge.ch/primaire,Non - Géocodage adresse
131,EP Cité-Jonction / Plantaporrêts,Primaire,Genève,GE,Canton de Genève,"Boulevard de Saint-Georges 68, 1205 Genève",46.196000,6.135000,2499367.81,1116897.86,DIP Genève - edu.ge.ch/primaire,Non - Géocodage adresse
132,EP Collonge / Meinier / Vésenaz,Primaire,Collonge-Bellerive,GE,Canton de Genève,"Chemin de la Californie 18, 1222 Vésenaz",46.238000,6.195000,2504073.09,1121490.92,DIP Genève - edu.ge.ch/primaire,Non - Géocodage adresse
133,EP Confignon / Cressy,Primaire,Confignon,GE,Canton de Genève,"Chemin de l'Ecole 1, 1232 Confignon",46.177000,6.082000,2495240.42,1114855.48,DIP Genève - edu.ge.ch/primaire,Non - Géocodage adresse
134,EP De-Budé / Crêts / Genêts,Primaire,Genève,GE,Canton de Genève,"Rue de-Budé 16, 1202 Genève",46.219000,6.153000,2500799.11,1119431.35,DIP Genève - edu.ge.ch/primaire,Non - Géocodage adresse
135,EP De-Livron / Golette,Primaire,Meyrin,GE,Canton de Genève,"Chemin de la Golette 10, 1217 Meyrin",46.229000,6.076000,2494877.66,1120643.25,DIP Genève - edu.ge.ch/primaire,Non - Géocodage adresse
136,EP Pont-Rouge / En Sauvy,Primaire,Carouge,GE,Canton de Genève,"Route des Acacias 55, 1227 Carouge",46.190000,6.135000,2499356.71,1116230.96,DIP Genève - edu.ge.ch/primaire,Non - Géocodage adresse
137,EP Etang / Balexert / Bourquin / Châtelaine,Primaire,Vernier,GE,Canton de Genève,"Avenue de Châtelaine 52, 1203 Genève",46.212000,6.112000,2497622.65,1118706.05,DIP Genève - edu.ge.ch/primaire,Non - Géocodage adresse
138,EP Ferdinand-Hodler / Micheli-du-Crest / St-Antoine,Primaire,Genève,GE,Canton de Genève,"Rue Ferdinand-Hodler 15, 1207 Genève",46.201000,6.153000,2500766.28,1117430.65,DIP Genève - edu.ge.ch/primaire,Non - Géocodage adresse
139,EP Franchises / Liotard / Vieusseux,Primaire,Genève,GE,Canton de Genève,"Avenue des Franchises 28, 1203 Genève",46.211000,6.124000,2498546.74,1118579.29,DIP Genève - edu.ge.ch/primaire,Non - Géocodage adresse
140,EP Geisendorf,Primaire,Genève,GE,Canton de Genève,"Rue Geisendorf 10, 1203 Genève",46.215000,6.135000,2499402.95,1119009.70,DIP Genève - edu.ge.ch/primaire,Non - Géocodage adresse
141,EP Grand-Saconnex / Pregny-Chambésy,Primaire,Grand-Saconnex,GE,Canton de Genève,"Chemin de l'Ecole 2, 1218 Grand-Saconnex",46.233000,6.125000,2498664.90,1121023.29,DIP Genève - edu.ge.ch/primaire,Non - Géocodage adresse
142,EP Grand-Salève / Troinex,Primaire,Troinex,GE,Canton de Genève,"Route de Bossey 21, 1256 Troinex",46.162000,6.158000,2501081.32,1113089.45,DIP Genève - edu.ge.ch/primaire,Non - Géocodage adresse
143,EP Grottes / Beaulieu / Cropettes,Primaire,Genève,GE,Canton de Genève,"Rue des Grottes 25, 1201 Genève",46.212000,6.139000,2499706.05,1118671.13,DIP Genève - edu.ge.ch/primaire,Non - Géocodage adresse
144,EP Lachenal / Céligny / Collex-Bossy,Primaire,Versoix,GE,Canton de Genève,"Chemin de Lachenal 10, 1290 Versoix",46.278000,6.162000,2501600.34,1125977.87,DIP Genève - edu.ge.ch/primaire,Non - Géocodage adresse
145,EP Le-Corbusier / Contamines,Primaire,Genève,GE,Canton de Genève,"Rue Le-Corbusier 8, 1208 Genève",46.199000,6.162000,2501457.27,1117196.99,DIP Genève - edu.ge.ch/primaire,Non - Géocodage adresse
146,EP Le-Sapay,Primaire,Versoix,GE,Canton de Genève,"Chemin du Sapay 1, 1290 Versoix",46.283000,6.157000,2501224.08,1126539.91,DIP Genève - edu.ge.ch/primaire,Non - Géocodage adresse
147,EP Libellules / Emilie-de-Morsier,Primaire,Genève,GE,Canton de Genève,"Avenue de la Jonction 23, 1205 Genève",46.196000,6.130000,2498981.88,1116904.29,DIP Genève - edu.ge.ch/primaire,Non - Géocodage adresse
148,EP Lignon / Aïre,Primaire,Vernier,GE,Canton de Genève,"Avenue du Lignon 14, 1219 Vernier",46.206000,6.096000,2496376.62,1118060.18,DIP Genève - edu.ge.ch/primaire,Non - Géocodage adresse
149,EP Mail / Carl-Vogt,Primaire,Genève,GE,Canton de Genève,"Boulevard du Pont-d'Arve 40, 1205 Genève",46.196000,6.141000,2499830.92,1116890.17,DIP Genève - edu.ge.ch/primaire,Non - Géocodage adresse
150,EP Mandement,Primaire,Satigny,GE,Canton de Genève,"Route de Peney 7, 1242 Satigny",46.214000,6.037000,2491839.47,1119029.11,DIP Genève - edu.ge.ch/primaire,Non - Géocodage adresse
151,EP Meyrin-Monthoux / Meyrin-Village,Primaire,Meyrin,GE,Canton de Genève,"Chemin de la Mategnin 4, 1217 Meyrin",46.235000,6.082000,2495352.04,1121302.11,DIP Genève - edu.ge.ch/primaire,Non - Géocodage adresse
152,EP Onex-Parc / Belle-Cour,Primaire,Onex,GE,Canton de Genève,"Rue des Bossons 42, 1213 Onex",46.183000,6.100000,2496641.63,1115498.47,DIP Genève - edu.ge.ch/primaire,Non - Géocodage adresse
153,EP Palettes / Bachet-de-Pesay,Primaire,Grand-Lancy,GE,Canton de Genève,"Chemin des Palettes 22, 1212 Grand-Lancy",46.184000,6.126000,2498650.79,1115575.66,DIP Genève - edu.ge.ch/primaire,Non - Géocodage adresse
154,EP Pâquis,Primaire,Genève,GE,Canton de Genève,"Rue de Chateaubriand 8, 1202 Genève",46.214000,6.149000,2500481.34,1118880.68,DIP Genève - edu.ge.ch/primaire,Non - Géocodage adresse
155,EP Perly-Certoux / Compesières / Laconnex / Soral,Primaire,Perly-Certoux,GE,Canton de Genève,"Route de Certoux 73, 1258 Perly",46.160000,6.098000,2496443.48,1112944.68,DIP Genève - edu.ge.ch/primaire,Non - Géocodage adresse
156,EP Pervenches / De-Montfalcon / Jacques-Dalphin,Primaire,Carouge,GE,Canton de Genève,"Rue Jacques-Dalphin 20, 1227 Carouge",46.185000,6.138000,2499579.07,1115671.36,DIP Genève - edu.ge.ch/primaire,Non - Géocodage adresse
157,EP Peschier / Crêts-de-Champel,Primaire,Genève,GE,Canton de Genève,"Chemin Peschier 11, 1206 Genève",46.195000,6.154000,2500832.52,1116762.48,DIP Genève - edu.ge.ch/primaire,Non - Géocodage adresse
158,EP Plateau / Petit-Lancy / Tivoli,Primaire,Petit-Lancy,GE,Canton de Genève,"Avenue du Plateau 11, 1213 Petit-Lancy",46.192000,6.111000,2497507.82,1116484.37,DIP Genève - edu.ge.ch/primaire,Non - Géocodage adresse
159,EP Roseraie,Primaire,Genève,GE,Canton de Genève,"Avenue de la Roseraie 24, 1205 Genève",46.189000,6.150000,2500512.80,1116100.65,DIP Genève - edu.ge.ch/primaire,Non - Géocodage adresse
160,EP Sécheron / De Chandieu,Primaire,Genève,GE,Canton de Genève,"Rue de Lyon 55, 1203 Genève",46.218000,6.146000,2500257.20,1119329.09,DIP Genève - edu.ge.ch/primaire,Non - Géocodage adresse
161,EP Seujet / Devin-du-Village / Necker / St-Jean,Primaire,Genève,GE,Canton de Genève,"Rue du Seujet 18, 1201 Genève",46.207000,6.140000,2499774.00,1118114.10,DIP Genève - edu.ge.ch/primaire,Non - Géocodage adresse
162,EP Tambourine / Vigne-Rouge,Primaire,Carouge,GE,Canton de Genève,"Route de la Tambourine 18, 1227 Carouge",46.178000,6.140000,2499720.58,1114890.74,DIP Genève - edu.ge.ch/primaire,Non - Géocodage adresse
163,EP Tattes / Gros-Chêne / Racettes,Primaire,Onex,GE,Canton de Genève,"Chemin des Tattes 23, 1213 Onex",46.190000,6.098000,2496500.53,1116279.16,DIP Genève - edu.ge.ch/primaire,Non - Géocodage adresse
164,EP Thônex Nord,Primaire,Thônex,GE,Canton de Genève,"Rue de Belle-Terre 2, 1226 Thônex",46.202000,6.206000,2504858.53,1117476.06,DIP Genève - edu.ge.ch/primaire,Non - Géocodage adresse
165,EP Tour / Pommier,Primaire,Genève,GE,Canton de Genève,"Rue des Pommiers 17, 1201 Genève",46.213000,6.138000,2499630.73,1118783.56,DIP Genève - edu.ge.ch/primaire,Non - Géocodage adresse
166,EP Trembley,Primaire,Genève,GE,Canton de Genève,"Avenue Trembley 12, 1209 Genève",46.226000,6.131000,2499114.72,1120237.50,DIP Genève - edu.ge.ch/primaire,Non - Géocodage adresse
167,EP Val-d'Arve / Promenades,Primaire,Carouge,GE,Canton de Genève,"Promenade de l'Observatoire 10, 1227 Carouge",46.188000,6.143000,2499970.59,1115998.41,DIP Genève - edu.ge.ch/primaire,Non - Géocodage adresse
168,EP Vandoeuvres / Choulex / Cologny / Pré-Picot / Puplinge,Primaire,Vandoeuvres,GE,Canton de Genève,"Chemin de la Chevillarde 11, 1253 Vandoeuvres",46.218000,6.200000,2504423.58,1119261.78,DIP Genève - edu.ge.ch/primaire,Non - Géocodage adresse
169,EP Vernier-Village,Primaire,Vernier,GE,Canton de Genève,"Chemin des Ranches 52, 1214 Vernier",46.215000,6.086000,2495622.18,1119073.80,DIP Genève - edu.ge.ch/primaire,Non - Géocodage adresse
170,EP Vollandes / Allières / Montchoisy,Primaire,Genève,GE,Canton de Genève,"Rue des Vollandes 41, 1207 Genève",46.202000,6.160000,2501308.34,1117532.96,DIP Genève - edu.ge.ch/primaire,Non - Géocodage adresse
171,EP XXXI-Décembre / De-Roches / Eaux-Vives,Primaire,Genève,GE,Canton de Genève,"Rue du XXXI-Décembre 25, 1207 Genève",46.201000,6.157000,2501074.99,1117425.59,DIP Genève - edu.ge.ch/primaire,Non - Géocodage adresse
172,Gymnase Auguste Piccard,Gymnase,Lausanne,VD,Lausanne,"Avenue des Bains 21, 1007 Lausanne",46.511700,6.619300,2537117.68,1151484.19,DGEP - vd.ch/def/dgep/les-gymnases,Oui - OSM
173,Gymnase de Beaulieu,Gymnase,Lausanne,VD,Lausanne,"Avenue des Bergières 10, 1004 Lausanne",46.527000,6.623000,2537419.35,1153181.97,DGEP - vd.ch/def/dgep/les-gymnases,Oui - OSM
174,Gymnase du Bugnon (site de l'Ours),Gymnase,Lausanne,VD,Lausanne,"Chemin des Abeilles 14, 1010 Lausanne",46.522200,6.640200,2538733.55,1152634.80,DGEP - vd.ch/def/dgep/les-gymnases,Oui - OSM
175,Gymnase du Bugnon (site de Sévelin),Gymnase,Lausanne,VD,Lausanne,"Avenue de Sévelin 44, 1004 Lausanne",46.522800,6.617200,2536969.46,1152719.75,DGEP - vd.ch/def/dgep/les-gymnases,Oui - OSM
176,Gymnase de Burier,Gymnase,La Tour-de-Peilz,VD,Lavaux-Riviera,"Route de Chailly 1, 1814 La Tour-de-Peilz",46.449600,6.877800,2556907.04,1144406.17,DGEP - vd.ch/def/dgep/les-gymnases,Oui - OSM
177,Gymnase de Bussigny,Gymnase,Bussigny,VD,CRENOL,"Chemin de Rente 26, 1030 Bussigny",46.557700,6.561500,2532739.12,1156645.53,DGEP - vd.ch/def/dgep/les-gymnases,Oui - OSM
178,Gymnase de Chamblandes,Gymnase,Pully,VD,Lavaux-Riviera,"Avenue des Désertes 29, 1009 Pully",46.506300,6.658100,2540089.40,1150853.52,DGEP - vd.ch/def/dgep/les-gymnases,Oui - OSM
179,Gymnase de Crissier,Gymnase,Crissier,VD,CRENOL,"Route de Cossonay 20, 1023 Crissier",46.554500,6.575500,2533808.70,1156277.89,DGEP - vd.ch/def/dgep/les-gymnases,Non - Approximatif
180,Gymnase d'Etoy,Gymnase,Etoy,VD,La Dôle,"Route de la Gare 7, 1163 Etoy",46.484800,6.419800,2521768.45,1148673.75,DGEP - vd.ch/def/dgep/les-gymnases,Oui - OSM
181,Gymnase de la Cité,Gymnase,Lausanne,VD,Lausanne,"Place du Château 12, 1005 Lausanne",46.524500,6.635900,2538406.23,1152893.84,DGEP - vd.ch/def/dgep/les-gymnases,Oui - OSM
182,Gymnase intercantonal de la Broye,Gymnase,Payerne,VD,Broye - Gros-de-Vaud,"Rue du Gymnase 1, 1530 Payerne",46.815000,6.940900,2562013.65,1184992.77,DGEP - vd.ch/def/dgep/les-gymnases,Oui - OSM
183,Gymnase de Morges (Marcelin),Gymnase,Morges,VD,Venoge-Lac,"Avenue de Marcelin 27, 1110 Morges",46.517900,6.488400,2527080.25,1152286.85,DGEP - vd.ch/def/dgep/les-gymnases,Oui - OSM
184,Gymnase de Nyon,Gymnase,Nyon,VD,La Dôle,"Route de Divonne 8, 1260 Nyon",46.382800,6.231600,2507143.92,1137541.55,DGEP - vd.ch/def/dgep/les-gymnases,Oui - OSM
185,Gymnase pour Adultes (GyPAd),Gymnase,Lausanne,VD,Lausanne,"Avenue des Désertes 29, 1009 Pully",46.506300,6.658100,2540089.40,1150853.52,DGEP - vd.ch/def/dgep/les-gymnases,Oui - OSM
186,Gymnase Provence,Gymnase,Lausanne,VD,Lausanne,"Avenue de Provence 26, 1004 Lausanne",46.523500,6.610800,2536479.22,1152802.73,DGEP - vd.ch/def/dgep/les-gymnases,Oui - OSM
187,Gymnase de Renens,Gymnase,Renens,VD,CRENOL,"Avenue du Silo 1, 1020 Renens",46.533700,6.583800,2534419.94,1153958.81,DGEP - vd.ch/def/dgep/les-gymnases,Oui - OSM
188,Gymnase d'Yverdon,Gymnase,Yverdon-les-Bains,VD,Jura - Nord vaudois,"Route de Bellevue, 1400 Yverdon-les-Bains",46.778400,6.664600,2540887.23,1181095.46,DGEP - vd.ch/def/dgep/les-gymnases,Oui - OSM
189,CEC André-Chavanne,Collège (Secondaire II),Genève,GE,Canton de Genève,"Avenue Trembley 14, 1209 Genève",46.221400,6.120400,2498288.40,1119739.91,DIP Genève - edu.ge.ch/secondaire2/college,Oui - OSM
190,Collège Calvin,Collège (Secondaire II),Genève,GE,Canton de Genève,"Rue Théodore-de-Bèze 2-4, 1205 Genève",46.200800,6.151300,2500634.71,1117410.57,DIP Genève - edu.ge.ch/secondaire2/college,Oui - OSM
191,Collège Claparède,Collège (Secondaire II),Chêne-Bougeries,GE,Canton de Genève,"Chemin de Fossard 6, 1224 Chêne-Bougeries",46.189400,6.184500,2503176.78,1116101.89,DIP Genève - edu.ge.ch/secondaire2/college,Oui - OSM
192,Collège de Candolle,Collège (Secondaire II),Chêne-Bourg,GE,Canton de Genève,"Avenue A.-M.-Mirany 36, 1225 Chêne-Bourg",46.204900,6.204100,2504716.98,1117800.71,DIP Genève - edu.ge.ch/secondaire2/college,Oui - OSM
193,Collège de Saussure,Collège (Secondaire II),Petit-Lancy,GE,Canton de Genève,"Vieux-Chemin-d'Onex 9, 1213 Petit-Lancy",46.184900,6.114300,2497749.21,1115690.89,DIP Genève - edu.ge.ch/secondaire2/college,Oui - OSM
194,CEC Emilie-Gourd,Collège (Secondaire II),Genève,GE,Canton de Genève,"Rue Le-Corbusier 15, 1208 Genève",46.193700,6.168000,2501910.80,1116600.36,DIP Genève - edu.ge.ch/secondaire2/college,Oui - OSM
195,CECG Madame de Staël,Collège (Secondaire II),Carouge,GE,Canton de Genève,"Route de Saint-Julien 25, 1227 Carouge",46.176000,6.134600,2499299.94,1114675.37,DIP Genève - edu.ge.ch/secondaire2/college,Oui - OSM
196,Collège pour adultes Alice-Rivaz,Collège (Secondaire II),Genève,GE,Canton de Genève,"Rue Théodore-de-Bèze 2-4, 1205 Genève",46.200800,6.151300,2500634.71,1117410.57,DIP Genève - edu.ge.ch/secondaire2/college,Oui - OSM
197,Collège Rousseau,Collège (Secondaire II),Genève,GE,Canton de Genève,"Avenue du Bouchet 16A, 1209 Genève",46.217600,6.121900,2498397.02,1119315.60,DIP Genève - edu.ge.ch/secondaire2/college,Oui - OSM
198,Collège Sismondi,Collège (Secondaire II),Genève,GE,Canton de Genève,"Chemin Eugène-Rigot 3, 1202 Genève",46.221500,6.142500,2499993.59,1119722.58,DIP Genève - edu.ge.ch/secondaire2/college,Oui - OSM
199,Collège Voltaire,Collège (Secondaire II),Genève,GE,Canton de Genève,"Rue Voltaire 21, 1201 Genève",46.207500,6.136500,2499504.83,1118174.15,DIP Genève - edu.ge.ch/secondaire2/college,Oui - OSM
