ID,Nom,Type,Commune,Canton,Region,Adresse,lat_wgs84,lon_wgs84,E_LV95,N_LV95,Source,Statut_Coordonnees
1,Etablissement primaire et secondaire d'Aigle,Primaire et Secondaire,Aigle,VD,Alpes vaudoises,"Chemin de la Planchette 18, 1860 Aigle",46.319600,6.957500,2562941.96,1129914.23,DGEO Annuaire 2025-2026 (vd.ch),Oui - OSM
2,Etablissement primaire et secondaire de Bex,Primaire et Secondaire,Bex,VD,Alpes vaudoises,"Chemin Pré-de-la-Cible 3, 1880 Bex",46.252200,7.013000,2567175.81,1122397.05,DGEO Annuaire 2025-2026 (vd.ch),Oui - OSM
3,Etablissement primaire et secondaire de Château-d'Oex - Pays-d'Enhaut,Primaire et Secondaire,Château-d'Oex,VD,Alpes vaudoises,"Grand Rue 77, 1660 Château-d'Oex",46.474500,7.131800,2576434.17,1147065.95,DGEO Annuaire 2025-2026 (vd.ch),Oui - OSM
4,Etablissement primaire et secondaire Les Ormonts-Leysin,Primaire et Secondaire,Le Sépey,VD,Alpes vaudoises,"Rue de la Gare 2, 1863 Le Sépey",46.361100,7.051900,2570235.46,1134487.20,DGEO Annuaire 2025-2026 (vd.ch),Oui - OSM
5,Etablissement primaire et secondaire d'Ollon,Primaire et Secondaire,Ollon VD,VD,Alpes vaudoises,"Chemin du Collège 14, 1867 Ollon VD",46.292500,6.988400,2565304.54,1126887.55,DGEO Annuaire 2025-2026 (vd.ch),Oui - OSM
6,Etablissement primaire et secondaire de Villeneuve Haut-Lac,Primaire et Secondaire,Villeneuve VD,VD,Alpes vaudoises,"Route de la Tour-Rouge 7a, 1844 Villeneuve VD",46.398400,6.929300,2560827.01,1138687.59,DGEO Annuaire 2025-2026 (vd.ch),Oui - Google Places
7,Etablissement primaire et secondaire d'Avenches et environs,Primaire et Secondaire,Avenches,VD,Broye - Gros-de-Vaud,"Route de Sous Ville 6a, 1580 Avenches",46.879100,7.036900,2569376.74,1192076.49,DGEO Annuaire 2025-2026 (vd.ch),Oui - OSM
8,Etablissement primaire et secondaire de Bercher - Plateau du Jorat,Primaire et Secondaire,Bercher,VD,Broye - Gros-de-Vaud,"Route de Fey 16, 1038 Bercher",46.690300,6.706200,2543972.52,1171271.50,DGEO Annuaire 2025-2026 (vd.ch),Oui - OSM
11,Etablissement primaire et secondaire du Jorat,Primaire et Secondaire,Mézières VD,VD,Broye - Gros-de-Vaud,"Chemin du Raffort 11, 1083 Mézières VD",46.586300,6.771400,2548861.32,1159666.05,DGEO Annuaire 2025-2026 (vd.ch),Oui - OSM/NPA
18,Etablissement primaire et secondaire de Bussigny et Villars-Ste-Croix,Primaire et Secondaire,Bussigny,VD,CRENOL,"Rue des Collèges 2, 1030 Bussigny",46.551300,6.552400,2532033.29,1155941.97,DGEO Annuaire 2025-2026 (vd.ch),Oui - Google Places
19,Etablissement primaire et secondaire de Chavannes-près-Renens et de St-Sulpice,Primaire et Secondaire,Chavannes-près-Renens,VD,CRENOL,"Avenue de la Concorde 1, 1022 Chavannes-près-Renens",46.532600,6.574700,2533720.50,1153844.19,DGEO Annuaire 2025-2026 (vd.ch),Oui - Google Places
20,Etablissement primaire et secondaire de Cheseaux-sur-Lausanne-La Chamberonne,Primaire et Secondaire,Cheseaux-sur-Lausanne,VD,CRENOL,"Ch. Derrière-la-Ville 3, 1033 Cheseaux-sur-Lausanne",46.560800,6.608000,2536308.35,1156951.25,DGEO Annuaire 2025-2026 (vd.ch),Oui - OSM/NPA
21,Etablissement primaire et secondaire de Crissier,Primaire et Secondaire,Crissier,VD,CRENOL,"Route de Marcolet 42, 1023 Crissier",46.545000,6.575200,2533774.06,1155222.14,DGEO Annuaire 2025-2026 (vd.ch),Oui - Google Places
22,Etablissement primaire et secondaire de Cugy et environs,Primaire et Secondaire,Cugy VD,VD,CRENOL,"Chemin de la Combe 5, 1053 Cugy VD",46.571500,6.654000,2539847.33,1158104.29,DGEO Annuaire 2025-2026 (vd.ch),Oui - OSM/NPA
23,Etablissement primaire et secondaire d'Ecublens,Primaire et Secondaire,Ecublens VD,VD,CRENOL,"Route du Bois 6, 1024 Ecublens VD",46.531700,6.566600,2533098.00,1153751.03,DGEO Annuaire 2025-2026 (vd.ch),Oui - Google Places
24,Etablissement primaire et secondaire d'Epalinges,Primaire et Secondaire,Epalinges,VD,CRENOL,"Chemin du Bois-Murat 15, 1066 Epalinges",46.537600,6.661200,2540361.87,1154330.46,DGEO Annuaire 2025-2026 (vd.ch),Oui - OSM/NPA
25,Etablissement primaire et secondaire du Mont-sur-Lausanne,Primaire et Secondaire,Le Mont-sur-Lausanne,VD,CRENOL,"Route de la Blécherette 5, 1052 Le Mont-sur-Lausanne",46.552000,6.629000,2537908.41,1155956.18,DGEO Annuaire 2025-2026 (vd.ch),Oui - OSM/NPA
26,Etablissement primaire et secondaire de Prilly,Primaire et Secondaire,Prilly,VD,CRENOL,"Chemin de l'Union 1, 1008 Prilly",46.536300,6.607300,2536225.77,1154228.41,DGEO Annuaire 2025-2026 (vd.ch),Oui - Google Places
31,Etablissement primaire et secondaire de Chavornay,Primaire et Secondaire,Chavornay,VD,Jura - Nord vaudois,"Rue du Verneret 12, 1373 Chavornay",46.705000,6.570800,2533633.65,1173011.36,DGEO Annuaire 2025-2026 (vd.ch),Oui - OSM/NPA
32,Etablissement primaire et secondaire de Grandson,Primaire et Secondaire,Grandson,VD,Jura - Nord vaudois,"Rue du Jura 27, 1422 Grandson",46.809000,6.646000,2539501.23,1184511.24,DGEO Annuaire 2025-2026 (vd.ch),Oui - OSM/NPA
35,Etablissement primaire et secondaire de Sainte-Croix et environs,Primaire et Secondaire,Ste-Croix,VD,Jura - Nord vaudois,"Avenue de la Gare 10, 1450 Ste-Croix",46.822000,6.506000,2528833.25,1186074.01,DGEO Annuaire 2025-2026 (vd.ch),Oui - OSM/NPA
36,Etablissement primaire et secondaire de la Vallée de Joux,Primaire et Secondaire,Le Sentier,VD,Jura - Nord vaudois,"Rue des Ecoles 2, 1347 Le Sentier",46.604000,6.231000,2507476.75,1162129.10,DGEO Annuaire 2025-2026 (vd.ch),Oui - OSM/NPA
37,"Etablissement primaire et secondaire de Vallorbe, Ballaigues et Vallon du Nozon",Primaire et Secondaire,Vallorbe,VD,Jura - Nord vaudois,"Rue Louis-Ruchonnet 33, 1337 Vallorbe",46.712000,6.377000,2518824.49,1173971.98,DGEO Annuaire 2025-2026 (vd.ch),Oui - OSM/NPA
42,Etablissement primaire et secondaire d'Yvonand et environs,Primaire et Secondaire,Yvonand,VD,Jura - Nord vaudois,"Avenue des Sports 13, 1462 Yvonand",46.800000,6.745000,2547048.44,1183439.06,DGEO Annuaire 2025-2026 (vd.ch),Oui - OSM/NPA
43,Etablissement primaire et secondaire d'Aubonne et environs,Primaire et Secondaire,Aubonne,VD,La Dôle,"Chemin du Collège 9, 1170 Aubonne",46.493900,6.395400,2519908.48,1149709.92,DGEO Annuaire 2025-2026 (vd.ch),Oui - Google Places
44,Etablissement primaire et secondaire de Begnins - L'Esplanade,Primaire et Secondaire,Begnins,VD,La Dôle,"Route de Saint-Cergue 5, 1268 Begnins",46.441000,6.266000,2509886.89,1143970.44,DGEO Annuaire 2025-2026 (vd.ch),Oui - OSM/NPA
47,Etablissement primaire et secondaire de Crassier - Elisabeth de Portes,Primaire et Secondaire,Crassier,VD,La Dôle,"Rue de la Tour 55, 1263 Crassier",46.379000,6.170000,2502398.68,1137194.04,DGEO Annuaire 2025-2026 (vd.ch),Oui - OSM/NPA
48,Etablissement primaire et secondaire de Genolier et environs,Primaire et Secondaire,Genolier,VD,La Dôle,"Chemin de la Brégentenaz 11, 1272 Genolier",46.435000,6.234000,2507417.75,1143340.83,DGEO Annuaire 2025-2026 (vd.ch),Oui - OSM/NPA
56,Etablissement primaire et secondaire de Rolle,Primaire et Secondaire,Rolle,VD,La Dôle,"Avenue Général-Guisan 23, 1180 Rolle",46.458000,6.332700,2515038.86,1145785.52,DGEO Annuaire 2025-2026 (vd.ch),Oui - Google Places
58,Etablissement primaire et secondaire Lausanne - Belvédère,Primaire et Secondaire,Lausanne,VD,Lausanne,"Chemin des Croix-Rouges 24, 1007 Lausanne",46.520100,6.619500,2537142.80,1152417.77,DGEO Annuaire 2025-2026 (vd.ch),Oui - Google Places
59,Etablissement primaire et secondaire de Lausanne - Bergières,Primaire et Secondaire,Lausanne,VD,Lausanne,"Avenue des Bergières 44, 1004 Lausanne",46.531800,6.621700,2537325.17,1153716.57,DGEO Annuaire 2025-2026 (vd.ch),Oui - Google Places
60,Etablissement primaire et secondaire de Lausanne - Béthusy,Primaire et Secondaire,Lausanne,VD,Lausanne,"Avenue de Béthusy 7, 1005 Lausanne",46.521700,6.642900,2538940.15,1152577.11,DGEO Annuaire 2025-2026 (vd.ch),Oui - Google Places
61,Etablissement primaire et secondaire de Lausanne - CF Ramuz,Primaire et Secondaire,Lausanne,VD,Lausanne,"Chemin d'Entre-Bois 13b, 1018 Lausanne",46.537100,6.630900,2538037.04,1154298.40,DGEO Annuaire 2025-2026 (vd.ch),Oui - Google Places
65,Etablissement primaire et secondaire Lausanne - I.-de-Montolieu,Primaire et Secondaire,Lausanne,VD,Lausanne,"Chemin des Abeilles 11, 1010 Lausanne",46.541000,6.647000,2539276.43,1154719.31,DGEO Annuaire 2025-2026 (vd.ch),Oui - Google Places
67,Etablissement primaire et secondaire de Lausanne - L'Elysée,Primaire et Secondaire,Lausanne,VD,Lausanne,"Avenue de l'Elysée 6, 1006 Lausanne",46.510200,6.631800,2538075.27,1151307.50,DGEO Annuaire 2025-2026 (vd.ch),Oui - Google Places
71,Etablissement primaire et secondaire de Lausanne - Villamont,Primaire et Secondaire,Lausanne,VD,Lausanne,"Chemin des Magnolias 6, 1005 Lausanne",46.518900,6.638400,2538591.69,1152269.39,DGEO Annuaire 2025-2026 (vd.ch),Oui - Google Places
72,Etablissement primaire et secondaire de Blonay - Saint-Légier,Primaire et Secondaire,Blonay,VD,Lavaux-Riviera,"Chemin de Bahyse 14, 1807 Blonay",46.466600,6.896200,2558333.90,1146285.97,DGEO Annuaire 2025-2026 (vd.ch),Oui - Google Places
73,Etablissement primaire et secondaire de centre Lavaux,Primaire et Secondaire,Puidoux,VD,Lavaux-Riviera,"Route du Verney 22, 1070 Puidoux",46.492400,6.766500,2548396.19,1149231.20,DGEO Annuaire 2025-2026 (vd.ch),Oui - Google Places
74,Etablissement primaire et secondaire de Corsier-sur-Vevey et environs,Primaire et Secondaire,Corsier-sur-Vevey,VD,Lavaux-Riviera,"Rue du Collège 7, 1804 Corsier-sur-Vevey",46.471300,6.845300,2554428.18,1146836.79,DGEO Annuaire 2025-2026 (vd.ch),Oui - Google Places
75,Etablissement primaire et secondaire de La Tour-de-Peilz,Primaire et Secondaire,La Tour-de-Peilz,VD,Lavaux-Riviera,"Rue du Collège 6, 1814 La Tour-de-Peilz",46.453600,6.858600,2555435.10,1144861.57,DGEO Annuaire 2025-2026 (vd.ch),Oui - Google Places
76,Etablissement primaire et secondaire de Lutry,Primaire et Secondaire,Lutry,VD,Lavaux-Riviera,"Chemin des Pâles 57, 1095 Lutry",46.507800,6.684800,2542140.31,1151000.18,DGEO Annuaire 2025-2026 (vd.ch),Oui - Google Places
77,Etablissement primaire et secondaire de Montreux-Est,Primaire et Secondaire,Montreux,VD,Lavaux-Riviera,"Rue de la Gare 33, 1820 Montreux",46.435100,6.913200,2559616.18,1142775.44,DGEO Annuaire 2025-2026 (vd.ch),Oui - Google Places
78,Etablissement primaire et secondaire de Montreux-Ouest,Primaire et Secondaire,Clarens,VD,Lavaux-Riviera,"Chemin des Vignes 12, 1815 Clarens",46.444900,6.898900,2558524.65,1143872.31,DGEO Annuaire 2025-2026 (vd.ch),Oui - Google Places
79,Etablissement primaire et secondaire d'Oron - Palézieux,Primaire et Secondaire,Oron-la-Ville,VD,Lavaux-Riviera,"Route de Lausanne 10, 1610 Oron-la-Ville",46.572000,6.824000,2552880.14,1158043.43,DGEO Annuaire 2025-2026 (vd.ch),Oui - OSM/NPA
83,Etablissement primaire et secondaire de Vevey,Primaire et Secondaire,Vevey,VD,Lavaux-Riviera,"Rue du Collège 30, 1800 Vevey",46.459300,6.847600,2554594.76,1145501.51,DGEO Annuaire 2025-2026 (vd.ch),Oui - Google Places
84,Etablissement primaire et secondaire d'Apples - Bière et environs,Primaire et Secondaire,Apples,VD,Venoge-Lac,"Chemin des Collèges 5, 1143 Apples",46.543000,6.428000,2522481.51,1155134.88,DGEO Annuaire 2025-2026 (vd.ch),Oui - OSM/NPA
87,Etablissement primaire et secondaire de La Sarraz et environs,Primaire et Secondaire,La Sarraz,VD,Venoge-Lac,"Rue des Guébettes 2, 1315 La Sarraz",46.658000,6.513000,2529151.95,1167837.49,DGEO Annuaire 2025-2026 (vd.ch),Oui - OSM/NPA
92,Etablissement primaire et secondaire de Préverenges et environs,Primaire et Secondaire,Préverenges,VD,Venoge-Lac,"Rue des Voiles du Léman 4, 1028 Préverenges",46.515800,6.526700,2530016.47,1152018.48,DGEO Annuaire 2025-2026 (vd.ch),Oui - Google Places
93,Etablissement primaire et secondaire de Saint-Prex et environs,Primaire et Secondaire,St-Prex,VD,Venoge-Lac,"Chemin du Cherrat 7, 1162 St-Prex",46.486500,6.454800,2524458.15,1148828.36,DGEO Annuaire 2025-2026 (vd.ch),Oui - Google Places
