station_name,station_id,lat_wgs84,lon_wgs84,freq_early_morning,deps_early_morning,ic_early_morning,freq_am_peak,deps_am_peak,ic_am_peak,freq_midday,deps_midday,ic_midday,freq_pm_peak,deps_pm_peak,ic_pm_peak,freq_evening,deps_evening,ic_evening,freq_late_night,deps_late_night,ic_late_night,freq_weekend_mid,deps_weekend_mid,ic_weekend_mid
"Vernier, Blandonnet",8587924,46.221936,6.097217,53.5,107,0,84.0,168,0,64.0,128,0,83.5,167,0,62.0,124,0,38.5,77,0,55.5,111,0
Lausanne,8501120,46.516795,6.629087,22.5,45,16,28.5,57,23,27.5,55,21,29.5,59,23,28.0,56,22,22.0,44,14,26.5,53,21
Renens VD,8501118,46.537046,6.57892,22.0,44,12,26.5,53,19,26.5,53,19,26.5,53,19,26.0,52,18,23.0,46,12,25.5,51,19
Genève,8501008,46.210228,6.142435,23.0,46,16,25.0,50,21,23.5,47,17,26.5,53,21,23.5,47,18,17.0,34,6,24.0,48,18
Vevey,8501200,46.463002,6.84343,15.5,31,8,20.0,40,8,18.5,37,8,20.0,40,8,18.0,36,8,14.5,29,8,17.0,34,8
Aigle,8501400,46.316856,6.96367,13.0,26,8,16.5,33,8,16.0,32,8,16.5,33,8,16.5,33,8,10.0,20,8,16.0,32,8
Morges,8501037,46.511102,6.493958,13.0,26,8,16.0,32,12,14.0,28,8,16.0,32,12,15.5,31,11,11.0,22,4,13.5,27,9
Montreux,8501300,46.435887,6.910425,12.5,25,9,16.0,32,9,15.5,31,8,15.0,30,8,15.0,30,9,10.5,21,8,15.5,31,8
Nyon,8501030,46.384429,6.23595,11.0,22,8,14.5,29,11,11.5,23,8,14.0,28,12,11.5,23,10,7.0,14,4,10.5,21,9
Genève-Eaux-Vives,8516273,46.201461,6.166549,9.5,19,0,12.5,25,0,12.0,24,0,13.0,26,0,12.5,25,0,8.0,16,0,10.0,20,0
Genève-Champel,8516272,46.192208,6.153473,9.5,19,0,12.5,25,0,12.0,24,0,13.0,26,0,12.5,25,0,8.0,16,0,10.0,20,0
Lancy-Bachet,8517142,46.174342,6.12934,9.5,19,0,12.5,25,0,12.0,24,0,13.0,26,0,12.5,25,0,8.0,16,0,10.0,20,0
Lancy-Pont-Rouge,8516155,46.18596,6.124929,9.0,18,0,12.0,24,0,12.0,24,0,13.0,26,0,12.5,25,0,8.5,17,0,10.0,20,0
Palézieux,8504014,46.542766,6.83786,10.5,21,3,11.5,23,4,11.0,22,4,12.0,24,4,11.0,22,4,10.0,20,4,10.0,20,4
"Aubonne, gare",8501870,46.493844,6.39294,6.0,12,0,11.0,22,0,10.0,20,0,10.5,21,0,9.0,18,0,4.5,9,0,7.5,15,0
Coppet,8501023,46.317405,6.187806,7.5,15,0,9.5,19,0,8.0,16,0,8.5,17,0,8.0,16,0,8.0,16,0,8.0,16,0
Bussigny,8501117,46.547597,6.551814,9.0,18,0,9.0,18,0,9.0,18,0,9.0,18,0,9.0,18,0,9.0,18,0,8.0,16,0
Prilly-Malley,8518452,46.526697,6.602624,9.0,18,0,9.0,18,0,9.0,18,0,9.0,18,0,9.0,18,0,9.0,18,0,8.0,16,0
Cully,8501124,46.488565,6.727141,8.5,17,0,9.0,18,0,9.0,18,0,9.0,18,0,9.0,18,0,9.0,18,0,8.0,16,0
"Begnins, poste",8501851,46.440225,6.247701,5.0,10,0,8.5,17,0,7.0,14,0,8.0,16,0,7.0,14,0,4.5,9,0,5.0,10,0
Genève-Sécheron,8516283,46.222452,6.144542,7.0,14,0,8.0,16,0,8.0,16,0,8.0,16,0,8.0,16,0,8.0,16,0,8.0,16,0
Genthod-Bellevue,8501021,46.256747,6.153947,7.0,14,0,8.0,16,0,8.0,16,0,8.0,16,0,8.0,16,0,8.0,16,0,8.0,16,0
Versoix,8501022,46.279741,6.165718,7.0,14,0,8.0,16,0,8.0,16,0,8.0,16,0,8.0,16,0,8.0,16,0,8.0,16,0
Tannay,8501015,46.307659,6.181097,7.0,14,0,8.0,16,0,8.0,16,0,8.0,16,0,8.0,16,0,8.0,16,0,8.0,16,0
Mies,8501014,46.298503,6.167641,7.0,14,0,8.0,16,0,8.0,16,0,8.0,16,0,8.0,16,0,8.0,16,0,8.0,16,0
Villeneuve VD,8501303,46.398369,6.926992,5.0,10,0,8.0,16,0,8.0,16,0,8.0,16,0,8.0,16,0,3.5,7,0,8.0,16,0
Bex,8501402,46.251462,7.000653,6.5,13,5,7.5,15,0,7.0,14,0,7.0,14,0,7.5,15,0,5.0,10,2,7.0,14,0
Gland,8501031,46.419998,6.269128,5.0,10,3,6.5,13,4,4.0,8,0,5.5,11,3,5.0,10,2,4.0,8,0,4.5,9,1
Allaman,8501035,46.47576,6.399683,5.5,11,0,6.0,12,0,6.0,12,0,6.0,12,0,6.0,12,0,6.0,12,0,6.0,12,0
Puidoux,8504012,46.493838,6.76568,6.5,13,0,6.0,12,0,6.0,12,0,6.0,12,0,6.0,12,0,6.0,12,0,6.0,12,0
"Prangins, Les Abériaux",8595589,46.393015,6.254119,4.0,8,0,5.5,11,0,6.0,12,0,6.0,12,0,5.5,11,0,4.0,8,0,4.0,8,0
Genève-Aéroport,8501026,46.232547,6.111969,4.5,9,8,4.5,9,9,4.0,8,8,5.0,10,10,4.0,8,8,3.0,6,2,5.0,10,8
Rolle,8501033,46.462757,6.336387,3.5,7,0,4.5,9,0,4.0,8,0,4.0,8,0,4.0,8,0,4.0,8,0,4.0,8,0
Grandvaux,8504011,46.496948,6.722641,3.5,7,0,4.5,9,0,4.0,8,0,5.0,10,0,4.0,8,0,4.0,8,0,4.0,8,0
St-Prex,8501036,46.482324,6.455897,4.0,8,0,4.0,8,0,4.0,8,0,4.0,8,0,4.0,8,0,4.0,8,0,4.0,8,0
Lonay-Préverenges,8501048,46.523141,6.519527,4.0,8,0,4.0,8,0,4.0,8,0,4.0,8,0,4.0,8,0,4.0,8,0,4.0,8,0
Lausanne-Flon,8501181,46.520798,6.63033,3.0,6,0,4.0,8,0,4.0,8,0,4.0,8,0,4.0,8,0,2.0,4,0,4.0,8,0
La Conversion,8504010,46.513087,6.678307,4.0,8,0,4.0,8,0,4.0,8,0,5.0,10,0,4.0,8,0,4.0,8,0,4.0,8,0
La Tour-de-Peilz,8501201,46.455457,6.859523,4.0,8,0,4.0,8,0,4.0,8,0,4.0,8,0,4.0,8,0,4.0,8,0,4.0,8,0
Burier,8501202,46.447889,6.877108,4.0,8,0,4.0,8,0,4.0,8,0,4.0,8,0,4.0,8,0,4.0,8,0,4.0,8,0
Clarens,8501203,46.442736,6.895771,4.0,8,0,4.0,8,0,4.0,8,0,4.0,8,0,4.0,8,0,4.0,8,0,4.0,8,0
"Founex, est",8588666,46.334766,6.19494,4.0,8,0,3.5,7,0,4.0,8,0,4.5,9,0,2.5,5,0,2.5,5,0,2.0,4,0
Rivaz,8501126,46.474211,6.784583,3.0,6,0,3.5,7,0,3.0,6,0,3.0,6,0,3.0,6,0,3.0,6,0,2.0,4,0
"Perroy, Couronnette",8570039,46.463879,6.352911,1.5,3,0,3.0,6,0,1.5,3,0,2.0,4,0,2.0,4,0,2.0,4,0,1.5,3,0
Epesses,8501125,46.489333,6.745157,3.0,6,0,3.0,6,0,3.0,6,0,3.0,6,0,3.0,6,0,3.0,6,0,2.0,4,0
Denges-Echandens,8501045,46.529129,6.54049,2.0,4,0,2.0,4,0,2.0,4,0,2.0,4,0,2.0,4,0,2.0,4,0,2.0,4,0
Bossière,8504003,46.509753,6.699305,2.0,4,0,2.0,4,0,2.0,4,0,3.0,6,0,2.0,4,0,2.0,4,0,2.0,4,0
Territet,8501301,46.426381,6.922695,2.0,4,0,2.0,4,0,2.0,4,0,2.0,4,0,2.0,4,0,2.0,4,0,2.0,4,0
"St-Saphorin (Lavaux), gare",8510135,46.472696,6.79809,0.0,0,0,0.0,0,0,0.0,0,0,0.0,0,0,0.0,0,0,0.0,0,0,0.0,0,0
