{"type": "FeatureCollection", "features": [{"type": "Feature", "geometry": {"type": "Point", "coordinates": [6.0836586, 46.1786613]}, "properties": {"name": "MOVE Station Bernex", "operator": "MOVE", "connectors": "Type 2 Outlet", "capacity": "4", "power_kw": "22.0", "charge_level": "medium", "is_24h": "yes", "access": "public", "nearest_station": "Lancy-Pont-Rouge"}}, {"type": "Feature", "geometry": {"type": "Point", "coordinates": [6.0856308, 46.2255517]}, "properties": {"name": "EVite Station Vernier", "operator": "EVite", "connectors": "Type 2 Outlet", "capacity": "1", "power_kw": "11.0", "charge_level": "medium", "is_24h": "yes", "access": "public", "nearest_station": "Vernier-Meyrin"}}, {"type": "Feature", "geometry": {"type": "Point", "coordinates": [6.0893862, 46.2822221]}, "properties": {"name": "Electra Station Meyrin", "operator": "Electra", "connectors": "Type2", "capacity": "8", "power_kw": "150", "charge_level": "", "is_24h": "", "access": "public", "nearest_station": "Gen\u00e8ve-A\u00e9roport"}}, {"type": "Feature", "geometry": {"type": "Point", "coordinates": [6.095492, 46.2446779]}, "properties": {"name": "Type2 Station Airport area", "operator": "", "connectors": "Type2", "capacity": "4", "power_kw": "", "charge_level": "", "is_24h": "", "access": "public", "nearest_station": "Gen\u00e8ve-A\u00e9roport"}}, {"type": "Feature", "geometry": {"type": "Point", "coordinates": [6.1024569, 46.1663745]}, "properties": {"name": "evpass Station 2", "operator": "evpass", "connectors": "CHAdeMO+Type1+Type2+CCS", "capacity": "6", "power_kw": "22.0", "charge_level": "medium", "is_24h": "no", "access": "public", "nearest_station": "Carouge-Bachet (CEVA)"}}, {"type": "Feature", "geometry": {"type": "Point", "coordinates": [6.10418, 46.18793]}, "properties": {"name": "Mobility Onex", "operator": "Mobility", "connectors": "mixed (EV fleet)", "capacity": "1", "power_kw": "", "charge_level": "", "is_24h": "", "access": "members", "nearest_station": "Lancy-Pont-Rouge"}}, {"type": "Feature", "geometry": {"type": "Point", "coordinates": [6.1042861, 46.1663262]}, "properties": {"name": "Shell evpass Station", "operator": "Shell", "connectors": "CHAdeMO+Type1+Type2+CCS", "capacity": "6", "power_kw": "22.0", "charge_level": "medium", "is_24h": "no", "access": "public", "nearest_station": "Carouge-Bachet (CEVA)"}}, {"type": "Feature", "geometry": {"type": "Point", "coordinates": [6.1074903, 46.2559942]}, "properties": {"name": "Schneider Electric Station", "operator": "Schneider Electric", "connectors": "", "capacity": "2", "power_kw": "22", "charge_level": "", "is_24h": "", "access": "public", "nearest_station": "Gen\u00e8ve-A\u00e9roport"}}, {"type": "Feature", "geometry": {"type": "Point", "coordinates": [6.1091698, 46.1651882]}, "properties": {"name": "EVBox Station Plan-les-Ouates", "operator": "EVBOX", "connectors": "Type2", "capacity": "2", "power_kw": "", "charge_level": "", "is_24h": "", "access": "public", "nearest_station": "Carouge-Bachet (CEVA)"}}, {"type": "Feature", "geometry": {"type": "Point", "coordinates": [6.1099009, 46.2560079]}, "properties": {"name": "EVlink Station Meyrin", "operator": "EVlink", "connectors": "", "capacity": "1", "power_kw": "22", "charge_level": "", "is_24h": "", "access": "public", "nearest_station": "Gen\u00e8ve-A\u00e9roport"}}, {"type": "Feature", "geometry": {"type": "Point", "coordinates": [6.1107821, 46.2190824]}, "properties": {"name": "Tesla Supercharger Balexert", "operator": "Tesla", "connectors": "Tesla SC 250kW + CCS 250kW", "capacity": "24", "power_kw": "250.0", "charge_level": "ultra-fast", "is_24h": "yes", "access": "customers", "nearest_station": "Gen\u00e8ve-A\u00e9roport"}}, {"type": "Feature", "geometry": {"type": "Point", "coordinates": [6.1109497, 46.169973]}, "properties": {"name": "evpass Station Plan-les-Ouates", "operator": "evpass", "connectors": "CHAdeMO+Type1+Type2+CCS", "capacity": "", "power_kw": "", "charge_level": "", "is_24h": "", "access": "private", "nearest_station": "Carouge-Bachet (CEVA)"}}, {"type": "Feature", "geometry": {"type": "Point", "coordinates": [6.1124035, 46.1662003]}, "properties": {"name": "MOVE Station Plan-les-Ouates", "operator": "MOVE", "connectors": "Type2", "capacity": "", "power_kw": "", "charge_level": "", "is_24h": "", "access": "public", "nearest_station": "Carouge-Bachet (CEVA)"}}, {"type": "Feature", "geometry": {"type": "Point", "coordinates": [6.11251, 46.2326]}, "properties": {"name": "Mobility Gen\u00e8ve A\u00e9roport", "operator": "Mobility", "connectors": "mixed (EV fleet)", "capacity": "4", "power_kw": "", "charge_level": "", "is_24h": "", "access": "members", "nearest_station": "Gen\u00e8ve-A\u00e9roport"}}, {"type": "Feature", "geometry": {"type": "Point", "coordinates": [6.1130355, 46.2192923]}, "properties": {"name": "Underground Station Balexert", "operator": "MOVE", "connectors": "Type 2 Outlet", "capacity": "1", "power_kw": "22.0", "charge_level": "medium", "is_24h": "yes", "access": "public", "nearest_station": "Gen\u00e8ve-A\u00e9roport"}}, {"type": "Feature", "geometry": {"type": "Point", "coordinates": [6.1131455, 46.2090788]}, "properties": {"name": "Mobility Gen\u00e8ve Les Ouches", "operator": "Mobility", "connectors": "mixed (EV fleet)", "capacity": "2", "power_kw": "", "charge_level": "", "is_24h": "", "access": "members", "nearest_station": "Vernier-Meyrin"}}, {"type": "Feature", "geometry": {"type": "Point", "coordinates": [6.11342, 46.21872]}, "properties": {"name": "Mobility Vernier Balexert", "operator": "Mobility", "connectors": "mixed (EV fleet)", "capacity": "1", "power_kw": "22.0", "charge_level": "medium", "is_24h": "yes", "access": "members", "nearest_station": "Gen\u00e8ve-A\u00e9roport"}}, {"type": "Feature", "geometry": {"type": "Point", "coordinates": [6.1136973, 46.2205429]}, "properties": {"name": "Greenmotion Station", "operator": "GreenMotion", "connectors": "Type 2 Outlet", "capacity": "2", "power_kw": "22.0", "charge_level": "medium", "is_24h": "yes", "access": "public", "nearest_station": "Gen\u00e8ve-A\u00e9roport"}}, {"type": "Feature", "geometry": {"type": "Point", "coordinates": [6.1186684, 46.1674129]}, "properties": {"name": "Plan-les-Ouates Station", "operator": "MOVE", "connectors": "Type 2 Outlet", "capacity": "4", "power_kw": "22.0", "charge_level": "medium", "is_24h": "yes", "access": "public", "nearest_station": "Carouge-Bachet (CEVA)"}}, {"type": "Feature", "geometry": {"type": "Point", "coordinates": [6.1214098, 46.1757765]}, "properties": {"name": "Lancy Station", "operator": "MOVE", "connectors": "Type 2 Outlet", "capacity": "6", "power_kw": "22.0", "charge_level": "medium", "is_24h": "yes", "access": "public", "nearest_station": "Carouge-Bachet (CEVA)"}}, {"type": "Feature", "geometry": {"type": "Point", "coordinates": [6.12301, 46.2294]}, "properties": {"name": "Mobility Grand-Saconnex", "operator": "Mobility", "connectors": "mixed (EV fleet)", "capacity": "1", "power_kw": "", "charge_level": "", "is_24h": "", "access": "members", "nearest_station": "Gen\u00e8ve-A\u00e9roport"}}, {"type": "Feature", "geometry": {"type": "Point", "coordinates": [6.12346, 46.20774]}, "properties": {"name": "Mobility Gen\u00e8ve Charmilles", "operator": "Mobility", "connectors": "mixed (EV fleet)", "capacity": "2", "power_kw": "22.0", "charge_level": "medium", "is_24h": "yes", "access": "members", "nearest_station": "Gen\u00e8ve"}}, {"type": "Feature", "geometry": {"type": "Point", "coordinates": [6.1237549, 46.1783509]}, "properties": {"name": "MOVE Station Carouge", "operator": "MOVE", "connectors": "Type2 22kW", "capacity": "7", "power_kw": "22.0", "charge_level": "medium", "is_24h": "yes", "access": "public", "nearest_station": "Carouge-Bachet (CEVA)"}}, {"type": "Feature", "geometry": {"type": "Point", "coordinates": [6.12707, 46.20105]}, "properties": {"name": "Mobility Gen\u00e8ve Jonction", "operator": "Mobility", "connectors": "mixed (EV fleet)", "capacity": "1", "power_kw": "", "charge_level": "", "is_24h": "", "access": "members", "nearest_station": "Lancy-Pont-Rouge"}}, {"type": "Feature", "geometry": {"type": "Point", "coordinates": [6.12759, 46.21004]}, "properties": {"name": "Mobility Gen\u00e8ve Wendt", "operator": "Mobility", "connectors": "mixed (EV fleet)", "capacity": "1", "power_kw": "", "charge_level": "", "is_24h": "", "access": "members", "nearest_station": "Gen\u00e8ve"}}, {"type": "Feature", "geometry": {"type": "Point", "coordinates": [6.1281768, 46.1808984]}, "properties": {"name": "Type2 Station Carouge", "operator": "", "connectors": "Type2 22kW", "capacity": "2", "power_kw": "", "charge_level": "", "is_24h": "", "access": "public", "nearest_station": "Lancy-Bachet"}}, {"type": "Feature", "geometry": {"type": "Point", "coordinates": [6.12836, 46.21352]}, "properties": {"name": "Mobility Gen\u00e8ve Servette 2", "operator": "Mobility", "connectors": "mixed (EV fleet)", "capacity": "2", "power_kw": "22.0", "charge_level": "medium", "is_24h": "yes", "access": "members", "nearest_station": "Gen\u00e8ve"}}, {"type": "Feature", "geometry": {"type": "Point", "coordinates": [6.1295362, 46.2127709]}, "properties": {"name": "Mobility Gen\u00e8ve Servette", "operator": "Mobility", "connectors": "mixed (EV fleet)", "capacity": "4", "power_kw": "22.0", "charge_level": "medium", "is_24h": "yes", "access": "members", "nearest_station": "Gen\u00e8ve"}}, {"type": "Feature", "geometry": {"type": "Point", "coordinates": [6.1297738, 46.213976]}, "properties": {"name": "SIG move Station", "operator": "SIG move", "connectors": "Type 2 Outlet", "capacity": "1", "power_kw": "22.0", "charge_level": "medium", "is_24h": "yes", "access": "public", "nearest_station": "Gen\u00e8ve"}}, {"type": "Feature", "geometry": {"type": "Point", "coordinates": [6.13158, 46.1874]}, "properties": {"name": "Mobility Carouge Noirettes", "operator": "Mobility", "connectors": "mixed (EV fleet)", "capacity": "4", "power_kw": "", "charge_level": "", "is_24h": "", "access": "members", "nearest_station": "Lancy-Pont-Rouge"}}, {"type": "Feature", "geometry": {"type": "Point", "coordinates": [6.134988, 46.256263]}, "properties": {"name": "evpass", "operator": "evpass", "connectors": "Type 2 Outlet", "capacity": "1", "power_kw": "22.0", "charge_level": "medium", "is_24h": "yes", "access": "public", "nearest_station": "Chamb\u00e9sy"}}, {"type": "Feature", "geometry": {"type": "Point", "coordinates": [6.1360957, 46.2027677]}, "properties": {"name": "Mobility H\u00f4tel des Finances", "operator": "Mobility", "connectors": "mixed (EV fleet)", "capacity": "4", "power_kw": "3.7", "charge_level": "slow", "is_24h": "yes", "access": "members", "nearest_station": "Gen\u00e8ve"}}, {"type": "Feature", "geometry": {"type": "Point", "coordinates": [6.137196, 46.20558]}, "properties": {"name": "Shell Recharge", "operator": "Shell Recharge", "connectors": "CCS Combo 2 Plug (Cable Attached);CHAdeMO;Type 1 Connector (Cable Attached);Type 2 Outlet", "capacity": "3", "power_kw": "22.0", "charge_level": "medium", "is_24h": "yes", "access": "public", "nearest_station": "Gen\u00e8ve"}}, {"type": "Feature", "geometry": {"type": "Point", "coordinates": [6.139153, 46.2262245]}, "properties": {"name": "Petit-Saconnex Station", "operator": "", "connectors": "", "capacity": "", "power_kw": "", "charge_level": "", "is_24h": "", "access": "public", "nearest_station": "Gen\u00e8ve-S\u00e9cheron"}}, {"type": "Feature", "geometry": {"type": "Point", "coordinates": [6.1392, 46.18404]}, "properties": {"name": "Mobility Carouge Sardaigne", "operator": "Mobility", "connectors": "mixed (EV fleet)", "capacity": "4", "power_kw": "", "charge_level": "", "is_24h": "", "access": "members", "nearest_station": "Lancy-Bachet"}}, {"type": "Feature", "geometry": {"type": "Point", "coordinates": [6.140234, 46.205637]}, "properties": {"name": "MOVE", "operator": "MOVE", "connectors": "Type 2 Outlet", "capacity": "1", "power_kw": "22.0", "charge_level": "medium", "is_24h": "yes", "access": "public", "nearest_station": "Gen\u00e8ve"}}, {"type": "Feature", "geometry": {"type": "Point", "coordinates": [6.1403369, 46.195341]}, "properties": {"name": "Mobility Gen\u00e8ve Uni-Mail", "operator": "Mobility", "connectors": "mixed (EV fleet)", "capacity": "6", "power_kw": "3.7", "charge_level": "slow", "is_24h": "yes", "access": "members", "nearest_station": "Lancy-Pont-Rouge"}}, {"type": "Feature", "geometry": {"type": "Point", "coordinates": [6.1407637, 46.2110411]}, "properties": {"name": "Mobility Gen\u00e8ve Les Grottes", "operator": "Mobility", "connectors": "mixed (EV fleet)", "capacity": "8", "power_kw": "", "charge_level": "", "is_24h": "", "access": "members", "nearest_station": "Gen\u00e8ve"}}, {"type": "Feature", "geometry": {"type": "Point", "coordinates": [6.14128, 46.188]}, "properties": {"name": "Mobility Carouge Octroi", "operator": "Mobility", "connectors": "mixed (EV fleet)", "capacity": "4", "power_kw": "", "charge_level": "", "is_24h": "", "access": "members", "nearest_station": "Lancy-Bachet"}}, {"type": "Feature", "geometry": {"type": "Point", "coordinates": [6.14136, 46.19816]}, "properties": {"name": "Mobility Gen\u00e8ve Plainpalais", "operator": "Mobility", "connectors": "mixed (EV fleet)", "capacity": "11", "power_kw": "3", "charge_level": "", "is_24h": "yes", "access": "members", "nearest_station": "Rive (tram hub)"}}, {"type": "Feature", "geometry": {"type": "Point", "coordinates": [6.1425196, 46.2265718]}, "properties": {"name": "Petit-Saconnex Station 2", "operator": "", "connectors": "", "capacity": "", "power_kw": "", "charge_level": "", "is_24h": "", "access": "public", "nearest_station": "Gen\u00e8ve-S\u00e9cheron"}}, {"type": "Feature", "geometry": {"type": "Point", "coordinates": [6.142729, 46.214323]}, "properties": {"name": "MOVE", "operator": "MOVE", "connectors": "Type 2 Outlet", "capacity": "1", "power_kw": "22.0", "charge_level": "medium", "is_24h": "yes", "access": "public", "nearest_station": "Cornavin (tram hub)"}}, {"type": "Feature", "geometry": {"type": "Point", "coordinates": [6.1428501, 46.2102513]}, "properties": {"name": "Mobility Gen\u00e8ve Cornavin", "operator": "Mobility", "connectors": "mixed (EV fleet)", "capacity": "15", "power_kw": "3.7", "charge_level": "slow", "is_24h": "yes", "access": "members", "nearest_station": "Cornavin (tram hub)"}}, {"type": "Feature", "geometry": {"type": "Point", "coordinates": [6.1433131, 46.2294365]}, "properties": {"name": "Grand-Saconnex Station", "operator": "", "connectors": "", "capacity": "", "power_kw": "", "charge_level": "", "is_24h": "", "access": "public", "nearest_station": "Gen\u00e8ve-S\u00e9cheron"}}, {"type": "Feature", "geometry": {"type": "Point", "coordinates": [6.1438498, 46.2188535]}, "properties": {"name": "Badge-only Station", "operator": "(Unknown Operator)", "connectors": "", "capacity": "2", "power_kw": "", "charge_level": "", "is_24h": "", "access": "public", "nearest_station": "Gen\u00e8ve-S\u00e9cheron"}}, {"type": "Feature", "geometry": {"type": "Point", "coordinates": [6.147293, 46.211497]}, "properties": {"name": "Shell Recharge", "operator": "Shell Recharge", "connectors": "Type 2 Outlet", "capacity": "2", "power_kw": "22.0", "charge_level": "medium", "is_24h": "yes", "access": "public", "nearest_station": "Cornavin (tram hub)"}}, {"type": "Feature", "geometry": {"type": "Point", "coordinates": [6.14918, 46.19498]}, "properties": {"name": "Mobility Gen\u00e8ve Lombard", "operator": "Mobility", "connectors": "mixed (EV fleet)", "capacity": "4", "power_kw": "22.0", "charge_level": "medium", "is_24h": "yes", "access": "members", "nearest_station": "Rive (tram hub)"}}, {"type": "Feature", "geometry": {"type": "Point", "coordinates": [6.1492361, 46.4026102]}, "properties": {"name": "Tesla Destination Founex", "operator": "Tesla (Tesla-only charging)", "connectors": "Type2 11kW", "capacity": "", "power_kw": "14", "charge_level": "", "is_24h": "", "access": "public", "nearest_station": "Nyon"}}, {"type": "Feature", "geometry": {"type": "Point", "coordinates": [6.149599, 46.209606]}, "properties": {"name": "Tesla Destination Charger", "operator": "Tesla", "connectors": "", "capacity": "", "power_kw": "22", "charge_level": "", "is_24h": "", "access": "public", "nearest_station": "Cornavin (tram hub)"}}, {"type": "Feature", "geometry": {"type": "Point", "coordinates": [6.14981, 46.21401]}, "properties": {"name": "Mobility Gen\u00e8ve P\u00e2quis", "operator": "Mobility", "connectors": "mixed (EV fleet)", "capacity": "1", "power_kw": "", "charge_level": "", "is_24h": "", "access": "members", "nearest_station": "Cornavin (tram hub)"}}, {"type": "Feature", "geometry": {"type": "Point", "coordinates": [6.15, 46.21983]}, "properties": {"name": "Mobility Gen\u00e8ve S\u00e9cheron", "operator": "Mobility", "connectors": "mixed (EV fleet)", "capacity": "2", "power_kw": "", "charge_level": "", "is_24h": "", "access": "members", "nearest_station": "Gen\u00e8ve-S\u00e9cheron"}}, {"type": "Feature", "geometry": {"type": "Point", "coordinates": [6.1506627, 46.1995462]}, "properties": {"name": "Mobility Gen\u00e8ve St-Antoine", "operator": "Mobility", "connectors": "mixed (EV fleet)", "capacity": "12", "power_kw": "3", "charge_level": "", "is_24h": "", "access": "members", "nearest_station": "Rive (tram hub)"}}, {"type": "Feature", "geometry": {"type": "Point", "coordinates": [6.1541295, 46.2543743]}, "properties": {"name": "Genthod Station", "operator": "MOVE", "connectors": "Type 2 Outlet", "capacity": "2", "power_kw": "22.0", "charge_level": "medium", "is_24h": "yes", "access": "public", "nearest_station": "Chamb\u00e9sy"}}, {"type": "Feature", "geometry": {"type": "Point", "coordinates": [6.1544281, 46.2550809]}, "properties": {"name": "Soraco Station Genthod", "operator": "Soraco", "connectors": "Type 2 Outlet", "capacity": "10", "power_kw": "22.0", "charge_level": "medium", "is_24h": "yes", "access": "public", "nearest_station": "Chamb\u00e9sy"}}, {"type": "Feature", "geometry": {"type": "Point", "coordinates": [6.1567849, 46.4466426]}, "properties": {"name": "evpass Begnins", "operator": "Shell Recharge", "connectors": "Type1 7kW+Type2 22kW", "capacity": "2", "power_kw": "22.0", "charge_level": "medium", "is_24h": "yes", "access": "public", "nearest_station": "Nyon"}}, {"type": "Feature", "geometry": {"type": "Point", "coordinates": [6.158302, 46.335182]}, "properties": {"name": "eCarUp", "operator": "eCarUp", "connectors": "CCS Combo 2 Plug (Cable Attached)", "capacity": "1", "power_kw": "300.0", "charge_level": "ultra-fast", "is_24h": "yes", "access": "public", "nearest_station": "Coppet"}}, {"type": "Feature", "geometry": {"type": "Point", "coordinates": [6.15887, 46.20023]}, "properties": {"name": "Mobility Gen\u00e8ve Villereuse", "operator": "Mobility", "connectors": "mixed (EV fleet)", "capacity": "10", "power_kw": "22.0", "charge_level": "medium", "is_24h": "yes", "access": "members", "nearest_station": "Rive (tram hub)"}}, {"type": "Feature", "geometry": {"type": "Point", "coordinates": [6.158948, 46.200356]}, "properties": {"name": "Shell Recharge", "operator": "Shell Recharge", "connectors": "Type 2 Outlet", "capacity": "1", "power_kw": "22.0", "charge_level": "medium", "is_24h": "yes", "access": "public", "nearest_station": "Rive (tram hub)"}}, {"type": "Feature", "geometry": {"type": "Point", "coordinates": [6.15938, 46.1869782]}, "properties": {"name": "Mobility Cit\u00e9 Universitaire", "operator": "Mobility", "connectors": "mixed (EV fleet)", "capacity": "1", "power_kw": "", "charge_level": "", "is_24h": "", "access": "members", "nearest_station": "Carouge-Bachet (CEVA)"}}, {"type": "Feature", "geometry": {"type": "Point", "coordinates": [6.1610066, 46.2801157]}, "properties": {"name": "Versoix Station 3", "operator": "MOVE", "connectors": "Type 2 Outlet", "capacity": "1", "power_kw": "22.0", "charge_level": "medium", "is_24h": "yes", "access": "public", "nearest_station": "Coppet"}}, {"type": "Feature", "geometry": {"type": "Point", "coordinates": [6.1610341, 46.2801046]}, "properties": {"name": "Versoix Station 2", "operator": "MOVE", "connectors": "Type 2 Outlet", "capacity": "1", "power_kw": "22.0", "charge_level": "medium", "is_24h": "yes", "access": "public", "nearest_station": "Coppet"}}, {"type": "Feature", "geometry": {"type": "Point", "coordinates": [6.1610623, 46.2800948]}, "properties": {"name": "Versoix Station 1", "operator": "MOVE", "connectors": "Type 2 Outlet", "capacity": "1", "power_kw": "22.0", "charge_level": "medium", "is_24h": "yes", "access": "public", "nearest_station": "Coppet"}}, {"type": "Feature", "geometry": {"type": "Point", "coordinates": [6.161517, 46.33473]}, "properties": {"name": "MOVE", "operator": "MOVE", "connectors": "CCS Combo 2 Plug (Cable Attached)", "capacity": "1", "power_kw": "150.0", "charge_level": "ultra-fast", "is_24h": "yes", "access": "public", "nearest_station": "Coppet"}}, {"type": "Feature", "geometry": {"type": "Point", "coordinates": [6.1649214, 46.2792796]}, "properties": {"name": "Aldi Charging Versoix", "operator": "EvPass/Aldi", "connectors": "Type 1 Connector (Cable Attached);Type 2 Outlet", "capacity": "2", "power_kw": "22.0", "charge_level": "medium", "is_24h": "yes", "access": "customers", "nearest_station": "Coppet"}}, {"type": "Feature", "geometry": {"type": "Point", "coordinates": [6.166292, 46.280255]}, "properties": {"name": "MOVE", "operator": "MOVE", "connectors": "Type 2 Outlet", "capacity": "1", "power_kw": "22.0", "charge_level": "medium", "is_24h": "yes", "access": "public", "nearest_station": "Coppet"}}, {"type": "Feature", "geometry": {"type": "Point", "coordinates": [6.166374, 46.20097]}, "properties": {"name": "Shell Recharge", "operator": "Shell Recharge", "connectors": "CCS Combo 2 Plug (Cable Attached);CHAdeMO;Type 2 Outlet", "capacity": "5", "power_kw": "22.0", "charge_level": "medium", "is_24h": "yes", "access": "public", "nearest_station": "Rive (tram hub)"}}, {"type": "Feature", "geometry": {"type": "Point", "coordinates": [6.167126, 46.296091]}, "properties": {"name": "Shell Recharge", "operator": "Shell Recharge", "connectors": "CCS Combo 2 Plug (Cable Attached)", "capacity": "4", "power_kw": "300.0", "charge_level": "ultra-fast", "is_24h": "yes", "access": "public", "nearest_station": "Coppet"}}, {"type": "Feature", "geometry": {"type": "Point", "coordinates": [6.176037, 46.317288]}, "properties": {"name": "MOVE", "operator": "MOVE", "connectors": "Type 2 Outlet", "capacity": "1", "power_kw": "22.0", "charge_level": "medium", "is_24h": "yes", "access": "public", "nearest_station": "Coppet"}}, {"type": "Feature", "geometry": {"type": "Point", "coordinates": [6.180602, 46.216295]}, "properties": {"name": "GreenMotion", "operator": "GreenMotion", "connectors": "CCS Combo 2 Plug (Cable Attached)", "capacity": "1", "power_kw": "50.0", "charge_level": "fast", "is_24h": "yes", "access": "public", "nearest_station": "Ch\u00eane-Bourg (CEVA)"}}, {"type": "Feature", "geometry": {"type": "Point", "coordinates": [6.184615, 46.206442]}, "properties": {"name": "Green Motion", "operator": "GreenMotion", "connectors": "Type 2 Outlet", "capacity": "1", "power_kw": "22.0", "charge_level": "medium", "is_24h": "yes", "access": "public", "nearest_station": "Ch\u00eane-Bourg (CEVA)"}}, {"type": "Feature", "geometry": {"type": "Point", "coordinates": [6.192252, 46.315357]}, "properties": {"name": "Evpass", "operator": "evpass", "connectors": "Type 2 Outlet", "capacity": "1", "power_kw": "22.0", "charge_level": "medium", "is_24h": "yes", "access": "public", "nearest_station": "Coppet"}}, {"type": "Feature", "geometry": {"type": "Point", "coordinates": [6.2042246, 46.195451]}, "properties": {"name": "Cologny Station", "operator": "MOVE", "connectors": "Type 2 Outlet", "capacity": "1", "power_kw": "22.0", "charge_level": "medium", "is_24h": "yes", "access": "public", "nearest_station": "Ch\u00eane-Bourg (CEVA)"}}, {"type": "Feature", "geometry": {"type": "Point", "coordinates": [6.2046342, 46.3990976]}, "properties": {"name": "evpass Prangins Fast", "operator": "Shell Recharge", "connectors": "CHAdeMO 50kW+Type2 22kW+CCS 50kW", "capacity": "2", "power_kw": "160.0", "charge_level": "ultra-fast", "is_24h": "yes", "access": "public", "nearest_station": "Nyon"}}, {"type": "Feature", "geometry": {"type": "Point", "coordinates": [6.2070585, 46.3968728]}, "properties": {"name": "evpass Station Prangins", "operator": "eCarUp", "connectors": "Type1 3.7kW+Type2 11kW", "capacity": "1", "power_kw": "11.0", "charge_level": "medium", "is_24h": "yes", "access": "public", "nearest_station": "Nyon"}}, {"type": "Feature", "geometry": {"type": "Point", "coordinates": [6.2175267, 46.4451311]}, "properties": {"name": "evpass Rolle 2", "operator": "Shell Recharge", "connectors": "Type1 7kW+Type2 22kW", "capacity": "1", "power_kw": "22.0", "charge_level": "medium", "is_24h": "yes", "access": "public", "nearest_station": "Gland"}}, {"type": "Feature", "geometry": {"type": "Point", "coordinates": [6.2182331, 46.3847661]}, "properties": {"name": "Emil Frey SA Nyon", "operator": "Emil Frey", "connectors": "Type 2 Outlet", "capacity": "1", "power_kw": "11.0", "charge_level": "medium", "is_24h": "yes", "access": "public", "nearest_station": "Nyon"}}, {"type": "Feature", "geometry": {"type": "Point", "coordinates": [6.218265, 46.400602]}, "properties": {"name": "ChargePoint", "operator": "ChargePoint", "connectors": "Type 2 Outlet", "capacity": "6", "power_kw": "22.0", "charge_level": "medium", "is_24h": "yes", "access": "public", "nearest_station": "Nyon"}}, {"type": "Feature", "geometry": {"type": "Point", "coordinates": [6.2198593, 46.3879175]}, "properties": {"name": "GOFAST Nyon", "operator": "GOFAST", "connectors": "CHAdeMO 60kW+Type2 22kW+CCS 150kW", "capacity": "2", "power_kw": "300.0", "charge_level": "ultra-fast", "is_24h": "yes", "access": "public", "nearest_station": "Nyon"}}, {"type": "Feature", "geometry": {"type": "Point", "coordinates": [6.2346857, 46.3839487]}, "properties": {"name": "Gare CFF Nyon", "operator": "", "connectors": "scooter", "capacity": "", "power_kw": "", "charge_level": "", "is_24h": "", "access": "public", "nearest_station": "Nyon"}}, {"type": "Feature", "geometry": {"type": "Point", "coordinates": [6.235991, 46.385289]}, "properties": {"name": "eCarUp", "operator": "eCarUp", "connectors": "Type 2 Outlet", "capacity": "1", "power_kw": "11.0", "charge_level": "medium", "is_24h": "yes", "access": "public", "nearest_station": "Nyon"}}, {"type": "Feature", "geometry": {"type": "Point", "coordinates": [6.2368466, 46.3945688]}, "properties": {"name": "MOVE Station Nyon", "operator": "MOVE", "connectors": "Type2 22kW", "capacity": "2", "power_kw": "22.0", "charge_level": "medium", "is_24h": "yes", "access": "public", "nearest_station": "Nyon"}}, {"type": "Feature", "geometry": {"type": "Point", "coordinates": [6.2396122, 46.383613]}, "properties": {"name": "Petit Perdtemps Nyon", "operator": "eCarUp", "connectors": "Type 2 Outlet", "capacity": "2", "power_kw": "11.0", "charge_level": "medium", "is_24h": "yes", "access": "public", "nearest_station": "Nyon"}}, {"type": "Feature", "geometry": {"type": "Point", "coordinates": [6.243273, 46.3820674]}, "properties": {"name": "D\u00e9barcad\u00e8re CGN Nyon", "operator": "", "connectors": "scooter", "capacity": "", "power_kw": "", "charge_level": "", "is_24h": "", "access": "public", "nearest_station": "Nyon"}}, {"type": "Feature", "geometry": {"type": "Point", "coordinates": [6.2438655, 46.3833815]}, "properties": {"name": "Rive Nyon", "operator": "eCarUp", "connectors": "Type 2 Outlet", "capacity": "2", "power_kw": "11.0", "charge_level": "medium", "is_24h": "yes", "access": "public", "nearest_station": "Nyon"}}, {"type": "Feature", "geometry": {"type": "Point", "coordinates": [6.24543, 46.38412]}, "properties": {"name": "evpass", "operator": "evpass", "connectors": "Type 2 Outlet", "capacity": "1", "power_kw": "11.0", "charge_level": "medium", "is_24h": "yes", "access": "public", "nearest_station": "Nyon"}}, {"type": "Feature", "geometry": {"type": "Point", "coordinates": [6.2470862, 46.4407207]}, "properties": {"name": "evpass Rolle", "operator": "eCarUp", "connectors": "Type1 7.4kW+Type2 22kW", "capacity": "2", "power_kw": "22.0", "charge_level": "medium", "is_24h": "yes", "access": "public", "nearest_station": "Gland"}}, {"type": "Feature", "geometry": {"type": "Point", "coordinates": [6.2549168, 46.4255104]}, "properties": {"name": "evpass Gland", "operator": "", "connectors": "Type1 7.4kW+Type2 22kW", "capacity": "1", "power_kw": "", "charge_level": "", "is_24h": "", "access": "public", "nearest_station": "Gland"}}, {"type": "Feature", "geometry": {"type": "Point", "coordinates": [6.258301, 46.422375]}, "properties": {"name": "Electra", "operator": "Electra", "connectors": "CCS Combo 2 Plug (Cable Attached)", "capacity": "4", "power_kw": "300", "charge_level": "", "is_24h": "no", "access": "public", "nearest_station": "Gland"}}, {"type": "Feature", "geometry": {"type": "Point", "coordinates": [6.2733078, 46.414539]}, "properties": {"name": "GOFAST Gland", "operator": "GOFAST", "connectors": "CHAdeMO+CCS 300kW", "capacity": "8", "power_kw": "300.0", "charge_level": "ultra-fast", "is_24h": "yes", "access": "public", "nearest_station": "Gland"}}, {"type": "Feature", "geometry": {"type": "Point", "coordinates": [6.27578, 46.416936]}, "properties": {"name": "Migrol", "operator": "Migrol", "connectors": "Type 2 Outlet", "capacity": "1", "power_kw": "22.0", "charge_level": "medium", "is_24h": "no", "access": "public", "nearest_station": "Gland"}}, {"type": "Feature", "geometry": {"type": "Point", "coordinates": [6.279201, 46.41594]}, "properties": {"name": "MOVE", "operator": "MOVE", "connectors": "Type 2 Outlet", "capacity": "1", "power_kw": "22.0", "charge_level": "medium", "is_24h": "yes", "access": "public", "nearest_station": "Gland"}}, {"type": "Feature", "geometry": {"type": "Point", "coordinates": [6.283598, 46.418986]}, "properties": {"name": "Shell Recharge", "operator": "Shell Recharge", "connectors": "CCS Combo 2 Plug (Cable Attached)", "capacity": "2", "power_kw": "66.0", "charge_level": "ultra-fast", "is_24h": "no", "access": "public", "nearest_station": "Gland"}}, {"type": "Feature", "geometry": {"type": "Point", "coordinates": [6.2975161, 46.4448699]}, "properties": {"name": "Move Station Aubonne", "operator": "MOVE", "connectors": "CCS Combo 2 Plug (Cable Attached)", "capacity": "2", "power_kw": "50.0", "charge_level": "fast", "is_24h": "yes", "access": "public", "nearest_station": "Rolle"}}, {"type": "Feature", "geometry": {"type": "Point", "coordinates": [6.2976393, 46.4465479]}, "properties": {"name": "Fast Charger Aubonne", "operator": "MOVE", "connectors": "CHAdeMO+Type2", "capacity": "6", "power_kw": "224.0", "charge_level": "ultra-fast", "is_24h": "yes", "access": "public", "nearest_station": "Rolle"}}, {"type": "Feature", "geometry": {"type": "Point", "coordinates": [6.324502, 46.461568]}, "properties": {"name": "evpass", "operator": "evpass", "connectors": "", "capacity": "", "power_kw": "", "charge_level": "", "is_24h": "", "access": "public", "nearest_station": "Rolle"}}, {"type": "Feature", "geometry": {"type": "Point", "coordinates": [6.3376, 46.461343]}, "properties": {"name": "evpass", "operator": "evpass", "connectors": "CCS Combo 2 Plug (Cable Attached)", "capacity": "2", "power_kw": "50.0", "charge_level": "fast", "is_24h": "no", "access": "public", "nearest_station": "Rolle"}}, {"type": "Feature", "geometry": {"type": "Point", "coordinates": [6.337786, 46.461192]}, "properties": {"name": "Migrol", "operator": "Migrol", "connectors": "CCS Combo 2 Plug (Cable Attached)", "capacity": "2", "power_kw": "50.0", "charge_level": "fast", "is_24h": "no", "access": "public", "nearest_station": "Rolle"}}, {"type": "Feature", "geometry": {"type": "Point", "coordinates": [6.341018, 46.459731]}, "properties": {"name": "eCarUp", "operator": "eCarUp", "connectors": "Type 2 Outlet", "capacity": "1", "power_kw": "22.0", "charge_level": "medium", "is_24h": "yes", "access": "public", "nearest_station": "Rolle"}}, {"type": "Feature", "geometry": {"type": "Point", "coordinates": [6.344777, 46.462721]}, "properties": {"name": "Shell Recharge", "operator": "Shell Recharge", "connectors": "CCS Combo 2 Plug (Cable Attached)", "capacity": "2", "power_kw": "66.0", "charge_level": "ultra-fast", "is_24h": "yes", "access": "public", "nearest_station": "Rolle"}}, {"type": "Feature", "geometry": {"type": "Point", "coordinates": [6.394928, 46.476919]}, "properties": {"name": "Electra", "operator": "Electra", "connectors": "CCS Combo 2 Plug (Cable Attached)", "capacity": "4", "power_kw": "", "charge_level": "", "is_24h": "no", "access": "public", "nearest_station": "Allaman"}}, {"type": "Feature", "geometry": {"type": "Point", "coordinates": [6.413878, 46.474598]}, "properties": {"name": "Lidl", "operator": "Lidl", "connectors": "CCS Combo 2 Plug (Cable Attached);CHAdeMO;Type 2 Outlet", "capacity": "3", "power_kw": "50.0", "charge_level": "fast", "is_24h": "no", "access": "public", "nearest_station": "Allaman"}}, {"type": "Feature", "geometry": {"type": "Point", "coordinates": [6.434445, 46.480922]}, "properties": {"name": "SOCAR Charge", "operator": "SOCAR", "connectors": "CCS Combo 2 Plug (Cable Attached)", "capacity": "1", "power_kw": "400.0", "charge_level": "ultra-fast", "is_24h": "yes", "access": "public", "nearest_station": "Allaman"}}, {"type": "Feature", "geometry": {"type": "Point", "coordinates": [6.43579, 46.479411]}, "properties": {"name": "Energie 360\u00b0", "operator": "Energie 360\u00b0", "connectors": "", "capacity": "", "power_kw": "", "charge_level": "", "is_24h": "", "access": "public", "nearest_station": "Allaman"}}, {"type": "Feature", "geometry": {"type": "Point", "coordinates": [6.452347, 46.490178]}, "properties": {"name": "Community by Shell Recharge", "operator": "Shell Recharge", "connectors": "", "capacity": "", "power_kw": "", "charge_level": "", "is_24h": "", "access": "public", "nearest_station": "Morges"}}, {"type": "Feature", "geometry": {"type": "Point", "coordinates": [6.494212, 46.510132]}, "properties": {"name": "Migrol", "operator": "Migrol", "connectors": "CCS Combo 2 Plug (Cable Attached)", "capacity": "2", "power_kw": "50.0", "charge_level": "fast", "is_24h": "no", "access": "public", "nearest_station": "Morges"}}, {"type": "Feature", "geometry": {"type": "Point", "coordinates": [6.494571, 46.51915]}, "properties": {"name": "evpass", "operator": "evpass", "connectors": "", "capacity": "", "power_kw": "", "charge_level": "", "is_24h": "", "access": "public", "nearest_station": "Morges"}}, {"type": "Feature", "geometry": {"type": "Point", "coordinates": [6.4970756, 46.506388]}, "properties": {"name": "Morges South Station", "operator": "Shell Recharge", "connectors": "Type 2 Outlet", "capacity": "2", "power_kw": "22.0", "charge_level": "medium", "is_24h": "yes", "access": "public", "nearest_station": "Morges"}}, {"type": "Feature", "geometry": {"type": "Point", "coordinates": [6.498213, 46.508197]}, "properties": {"name": "evpass", "operator": "evpass", "connectors": "Type 2 Outlet", "capacity": "1", "power_kw": "50.0", "charge_level": "fast", "is_24h": "yes", "access": "public", "nearest_station": "Morges"}}, {"type": "Feature", "geometry": {"type": "Point", "coordinates": [6.5006747, 46.5105446]}, "properties": {"name": "evpass Morges Centre", "operator": "evpass", "connectors": "Type 2 Outlet", "capacity": "2", "power_kw": "22.0", "charge_level": "medium", "is_24h": "yes", "access": "public", "nearest_station": "Morges"}}, {"type": "Feature", "geometry": {"type": "Point", "coordinates": [6.504302, 46.517412]}, "properties": {"name": "eCarUp", "operator": "eCarUp", "connectors": "Type 2 Outlet", "capacity": "1", "power_kw": "11.0", "charge_level": "medium", "is_24h": "yes", "access": "public", "nearest_station": "Morges"}}, {"type": "Feature", "geometry": {"type": "Point", "coordinates": [6.5121072, 46.5173088]}, "properties": {"name": "Shell/Migrol Morges", "operator": "Shell", "connectors": "CCS Combo 2 Plug (Cable Attached)", "capacity": "2", "power_kw": "128.0", "charge_level": "ultra-fast", "is_24h": "yes", "access": "public", "nearest_station": "Morges"}}, {"type": "Feature", "geometry": {"type": "Point", "coordinates": [6.5650971, 46.5185249]}, "properties": {"name": "GOFAST EPFL", "operator": "GOFAST", "connectors": "CHAdeMO 60kW+Tesla 50kW+Type2 43kW+CCS 150kW", "capacity": "2", "power_kw": "150.0", "charge_level": "ultra-fast", "is_24h": "yes", "access": "public", "nearest_station": "EPFL (M1)"}}, {"type": "Feature", "geometry": {"type": "Point", "coordinates": [6.5741309, 46.5248819]}, "properties": {"name": "Retraites Populaires Ecublens", "operator": "Retraites Populaires", "connectors": "Type1 7kW+Type2 22kW", "capacity": "2", "power_kw": "", "charge_level": "", "is_24h": "", "access": "public", "nearest_station": "EPFL (M1)"}}, {"type": "Feature", "geometry": {"type": "Point", "coordinates": [6.5848792, 46.5219335]}, "properties": {"name": "Evpass Chavannes", "operator": "eCarUp", "connectors": "Type 2 Outlet", "capacity": "2", "power_kw": "22.0", "charge_level": "medium", "is_24h": "yes", "access": "public", "nearest_station": "EPFL (M1)"}}, {"type": "Feature", "geometry": {"type": "Point", "coordinates": [6.6014249, 46.5378631]}, "properties": {"name": "Migrol UNIL 2", "operator": "Migrol", "connectors": "CCS Combo 2 Plug (Cable Attached)", "capacity": "2", "power_kw": "128.0", "charge_level": "ultra-fast", "is_24h": "yes", "access": "public", "nearest_station": "Renens"}}, {"type": "Feature", "geometry": {"type": "Point", "coordinates": [6.6014587, 46.5378395]}, "properties": {"name": "Migrol UNIL", "operator": "Migrol", "connectors": "CCS Combo 2 Plug (Cable Attached)", "capacity": "2", "power_kw": "128.0", "charge_level": "ultra-fast", "is_24h": "yes", "access": "public", "nearest_station": "Renens"}}, {"type": "Feature", "geometry": {"type": "Point", "coordinates": [6.601486, 46.5307]}, "properties": {"name": "Virta Global", "operator": "Virta Global", "connectors": "Type 2 Outlet", "capacity": "1", "power_kw": "22.0", "charge_level": "medium", "is_24h": "yes", "access": "public", "nearest_station": "Renens"}}, {"type": "Feature", "geometry": {"type": "Point", "coordinates": [6.607074, 46.534445]}, "properties": {"name": "Energie 360\u00b0", "operator": "Energie 360\u00b0", "connectors": "CCS Combo 2 Plug (Cable Attached);Type 2 Outlet", "capacity": "6", "power_kw": "50.0", "charge_level": "fast", "is_24h": "yes", "access": "public", "nearest_station": "Renens"}}, {"type": "Feature", "geometry": {"type": "Point", "coordinates": [6.607942, 46.5275266]}, "properties": {"name": "Lausanne Flon Station 2", "operator": "eCarUp", "connectors": "Type 2 Outlet", "capacity": "2", "power_kw": "", "charge_level": "", "is_24h": "yes", "access": "public", "nearest_station": "Lausanne-Flon (M2)"}}, {"type": "Feature", "geometry": {"type": "Point", "coordinates": [6.6079902, 46.5275201]}, "properties": {"name": "Lausanne Flon Station", "operator": "eCarUp", "connectors": "Type 2 Outlet", "capacity": "2", "power_kw": "", "charge_level": "", "is_24h": "yes", "access": "public", "nearest_station": "Lausanne-Flon (M2)"}}, {"type": "Feature", "geometry": {"type": "Point", "coordinates": [6.6152208, 46.5308169]}, "properties": {"name": "SiL Nativa Lausanne Gare 2", "operator": "Lausanne SiL", "connectors": "Type 2 Outlet", "capacity": "2", "power_kw": "22.0", "charge_level": "medium", "is_24h": "yes", "access": "public", "nearest_station": "Lausanne-Flon (M2)"}}, {"type": "Feature", "geometry": {"type": "Point", "coordinates": [6.6152967, 46.5307159]}, "properties": {"name": "SiL Nativa Lausanne Gare", "operator": "Lausanne SiL", "connectors": "Type 2 Outlet", "capacity": "2", "power_kw": "22.0", "charge_level": "medium", "is_24h": "yes", "access": "public", "nearest_station": "Lausanne-Flon (M2)"}}, {"type": "Feature", "geometry": {"type": "Point", "coordinates": [6.6178945, 46.515109]}, "properties": {"name": "eMobile Av. de Cour", "operator": "", "connectors": "", "capacity": "", "power_kw": "", "charge_level": "", "is_24h": "", "access": "public", "nearest_station": "Grancy (M2)"}}, {"type": "Feature", "geometry": {"type": "Point", "coordinates": [6.618129, 46.541697]}, "properties": {"name": "Shell Recharge", "operator": "Shell Recharge", "connectors": "CCS Combo 2 Plug (Cable Attached);CHAdeMO", "capacity": "2", "power_kw": "44.0", "charge_level": "fast", "is_24h": "yes", "access": "public", "nearest_station": "Lausanne-Flon (M2)"}}, {"type": "Feature", "geometry": {"type": "Point", "coordinates": [6.6228101, 46.5124834]}, "properties": {"name": "evpass Lausanne Vidy", "operator": "evpass", "connectors": "CHAdeMO+Type1+Type2+CCS", "capacity": "2", "power_kw": "22.0", "charge_level": "medium", "is_24h": "yes", "access": "public", "nearest_station": "Grancy (M2)"}}, {"type": "Feature", "geometry": {"type": "Point", "coordinates": [6.623194, 46.508102]}, "properties": {"name": "Shell Recharge", "operator": "Shell Recharge", "connectors": "CCS Combo 2 Plug (Cable Attached)", "capacity": "1", "power_kw": "44.0", "charge_level": "fast", "is_24h": "yes", "access": "public", "nearest_station": "Ouchy-Olympique (M2)"}}, {"type": "Feature", "geometry": {"type": "Point", "coordinates": [6.626342, 46.522164]}, "properties": {"name": "Shell Recharge", "operator": "Shell Recharge", "connectors": "CCS Combo 2 Plug (Cable Attached)", "capacity": "1", "power_kw": "44.0", "charge_level": "fast", "is_24h": "yes", "access": "public", "nearest_station": "Lausanne-Flon (M2)"}}, {"type": "Feature", "geometry": {"type": "Point", "coordinates": [6.6272586, 46.5425525]}, "properties": {"name": "Romande Energie Lidl Prilly", "operator": "Romande Energie", "connectors": "CCS Combo 2 Plug (Cable Attached);CHAdeMO", "capacity": "2", "power_kw": "66.0", "charge_level": "ultra-fast", "is_24h": "yes", "access": "public", "nearest_station": "Lausanne-Flon (M2)"}}, {"type": "Feature", "geometry": {"type": "Point", "coordinates": [6.6278978, 46.5416847]}, "properties": {"name": "Shell evpass Prilly", "operator": "Shell", "connectors": "CHAdeMO 22kW+CCS 22kW", "capacity": "1", "power_kw": "66.0", "charge_level": "ultra-fast", "is_24h": "yes", "access": "public", "nearest_station": "Lausanne-Flon (M2)"}}, {"type": "Feature", "geometry": {"type": "Point", "coordinates": [6.6297206, 46.5457737]}, "properties": {"name": "evpass Renens", "operator": "evpass", "connectors": "Type 2 Outlet", "capacity": "2", "power_kw": "", "charge_level": "", "is_24h": "yes", "access": "public", "nearest_station": "Lausanne-Flon (M2)"}}, {"type": "Feature", "geometry": {"type": "Point", "coordinates": [6.631577, 46.523746]}, "properties": {"name": "Shell Recharge", "operator": "Shell Recharge", "connectors": "CCS Combo 2 Plug (Cable Attached);CHAdeMO", "capacity": "1", "power_kw": "44.0", "charge_level": "fast", "is_24h": "yes", "access": "public", "nearest_station": "Lausanne-Flon (M2)"}}, {"type": "Feature", "geometry": {"type": "Point", "coordinates": [6.632887, 46.523781]}, "properties": {"name": "Shell Recharge", "operator": "Shell Recharge", "connectors": "CCS Combo 2 Plug (Cable Attached);Type 2 Outlet", "capacity": "9", "power_kw": "66.0", "charge_level": "ultra-fast", "is_24h": "yes", "access": "public", "nearest_station": "Lausanne-Flon (M2)"}}, {"type": "Feature", "geometry": {"type": "Point", "coordinates": [6.635143, 46.520883]}, "properties": {"name": "Shell Recharge", "operator": "Shell Recharge", "connectors": "CCS Combo 2 Plug (Cable Attached);Type 1 Connector (Cable Attached);Type 2 Outlet", "capacity": "2", "power_kw": "22.0", "charge_level": "medium", "is_24h": "yes", "access": "public", "nearest_station": "Lausanne-Flon (M2)"}}, {"type": "Feature", "geometry": {"type": "Point", "coordinates": [6.6371012, 46.5216661]}, "properties": {"name": "SiL Station Lausanne Ouchy", "operator": "Lausanne SiL", "connectors": "Type 2 Outlet", "capacity": "2", "power_kw": "22.0", "charge_level": "medium", "is_24h": "yes", "access": "public", "nearest_station": "Lausanne-Flon (M2)"}}, {"type": "Feature", "geometry": {"type": "Point", "coordinates": [6.637549, 46.520846]}, "properties": {"name": "Energie 360\u00b0", "operator": "Energie 360\u00b0", "connectors": "CCS Combo 2 Plug (Cable Attached)", "capacity": "4", "power_kw": "50.0", "charge_level": "fast", "is_24h": "yes", "access": "public", "nearest_station": "Lausanne-Flon (M2)"}}, {"type": "Feature", "geometry": {"type": "Point", "coordinates": [6.640658, 46.519155]}, "properties": {"name": "Shell Recharge", "operator": "Shell Recharge", "connectors": "", "capacity": "", "power_kw": "", "charge_level": "", "is_24h": "", "access": "public", "nearest_station": "Lausanne-Flon (M2)"}}, {"type": "Feature", "geometry": {"type": "Point", "coordinates": [6.651494, 46.540437]}, "properties": {"name": "MOVE", "operator": "MOVE", "connectors": "Type 2 Outlet", "capacity": "1", "power_kw": "22.0", "charge_level": "medium", "is_24h": "yes", "access": "public", "nearest_station": "Lausanne-Flon (M2)"}}, {"type": "Feature", "geometry": {"type": "Point", "coordinates": [6.658206, 46.540592]}, "properties": {"name": "MOVE", "operator": "MOVE", "connectors": "Type 2 Outlet", "capacity": "1", "power_kw": "22.0", "charge_level": "medium", "is_24h": "yes", "access": "public", "nearest_station": "Lausanne-Flon (M2)"}}, {"type": "Feature", "geometry": {"type": "Point", "coordinates": [6.658822, 46.511236]}, "properties": {"name": "Shell Recharge", "operator": "Shell Recharge", "connectors": "CCS Combo 2 Plug (Cable Attached);CHAdeMO;Type 1 Connector (Cable Attached);Type 2 Outlet", "capacity": "3", "power_kw": "22.0", "charge_level": "medium", "is_24h": "yes", "access": "public", "nearest_station": "Pully"}}, {"type": "Feature", "geometry": {"type": "Point", "coordinates": [6.6590865, 46.5100889]}, "properties": {"name": "evpass Pully", "operator": "evpass", "connectors": "Type 1 Connector (Cable Attached);Type 2 Outlet", "capacity": "2", "power_kw": "22.0", "charge_level": "medium", "is_24h": "yes", "access": "public", "nearest_station": "Pully"}}, {"type": "Feature", "geometry": {"type": "Point", "coordinates": [6.6595516, 46.5433709]}, "properties": {"name": "EPFL Area Station", "operator": "eCarUp", "connectors": "Type 2 Outlet", "capacity": "1", "power_kw": "22.0", "charge_level": "medium", "is_24h": "yes", "access": "public", "nearest_station": "Lausanne-Flon (M2)"}}, {"type": "Feature", "geometry": {"type": "Point", "coordinates": [6.660915, 46.505821]}, "properties": {"name": "Shell Recharge", "operator": "Shell Recharge", "connectors": "CCS Combo 2 Plug (Cable Attached);CHAdeMO;Type 1 Connector (Cable Attached);Type 2 Outlet", "capacity": "2", "power_kw": "44.0", "charge_level": "fast", "is_24h": "yes", "access": "public", "nearest_station": "Pully"}}, {"type": "Feature", "geometry": {"type": "Point", "coordinates": [6.6614038, 46.5427471]}, "properties": {"name": "Epalinges Station", "operator": "", "connectors": "", "capacity": "2", "power_kw": "", "charge_level": "", "is_24h": "", "access": "public", "nearest_station": "Lausanne-Flon (M2)"}}, {"type": "Feature", "geometry": {"type": "Point", "coordinates": [6.6624821, 46.5095458]}, "properties": {"name": "evpass Pully 2", "operator": "evpass", "connectors": "CCS Combo 2 Plug (Cable Attached)", "capacity": "3", "power_kw": "66.0", "charge_level": "ultra-fast", "is_24h": "yes", "access": "public", "nearest_station": "Pully"}}, {"type": "Feature", "geometry": {"type": "Point", "coordinates": [6.6719333, 46.5484887]}, "properties": {"name": "Croix-Blanche Station", "operator": "eCarUp", "connectors": "Type 2 Outlet", "capacity": "1", "power_kw": "22.0", "charge_level": "medium", "is_24h": "yes", "access": "public", "nearest_station": "Pully"}}, {"type": "Feature", "geometry": {"type": "Point", "coordinates": [6.677518, 46.513261]}, "properties": {"name": "evpass", "operator": "evpass", "connectors": "Type 2 Outlet", "capacity": "1", "power_kw": "22.0", "charge_level": "medium", "is_24h": "yes", "access": "public", "nearest_station": "Lutry"}}, {"type": "Feature", "geometry": {"type": "Point", "coordinates": [6.6848311, 46.5033799]}, "properties": {"name": "evpass Lutry", "operator": "evpass", "connectors": "Type 2 Outlet", "capacity": "2", "power_kw": "", "charge_level": "", "is_24h": "yes", "access": "public", "nearest_station": "Lutry"}}, {"type": "Feature", "geometry": {"type": "Point", "coordinates": [6.70897, 46.50553]}, "properties": {"name": "Plenitude On The Road", "operator": "Plenitude", "connectors": "CCS Combo 2 Plug (Cable Attached);Type 2 Outlet", "capacity": "3", "power_kw": "", "charge_level": "", "is_24h": "no", "access": "public", "nearest_station": "Lutry"}}, {"type": "Feature", "geometry": {"type": "Point", "coordinates": [6.710488, 46.505273]}, "properties": {"name": "MOVE", "operator": "MOVE", "connectors": "Type 2 Outlet", "capacity": "1", "power_kw": "22.0", "charge_level": "medium", "is_24h": "yes", "access": "public", "nearest_station": "Lutry"}}, {"type": "Feature", "geometry": {"type": "Point", "coordinates": [6.769868, 46.49166]}, "properties": {"name": "Shell Recharge", "operator": "Shell Recharge", "connectors": "CCS Combo 2 Plug (Cable Attached)", "capacity": "2", "power_kw": "160.0", "charge_level": "ultra-fast", "is_24h": "yes", "access": "public", "nearest_station": "Rivaz"}}, {"type": "Feature", "geometry": {"type": "Point", "coordinates": [6.773422, 46.480831]}, "properties": {"name": "Shell Recharge", "operator": "Shell Recharge", "connectors": "CCS Combo 2 Plug (Cable Attached);CHAdeMO", "capacity": "1", "power_kw": "22.0", "charge_level": "medium", "is_24h": "yes", "access": "public", "nearest_station": "Rivaz"}}, {"type": "Feature", "geometry": {"type": "Point", "coordinates": [6.77628, 46.483147]}, "properties": {"name": "Shell Recharge", "operator": "Shell Recharge", "connectors": "Type 2 Outlet", "capacity": "1", "power_kw": "22.0", "charge_level": "medium", "is_24h": "yes", "access": "public", "nearest_station": "Rivaz"}}, {"type": "Feature", "geometry": {"type": "Point", "coordinates": [6.779911, 46.475885]}, "properties": {"name": "MOVE", "operator": "MOVE", "connectors": "Type 2 Outlet", "capacity": "1", "power_kw": "11.0", "charge_level": "medium", "is_24h": "yes", "access": "public", "nearest_station": "St-Saphorin"}}, {"type": "Feature", "geometry": {"type": "Point", "coordinates": [6.828927, 46.476526]}, "properties": {"name": "evpass", "operator": "evpass", "connectors": "Type 2 Outlet", "capacity": "1", "power_kw": "22.0", "charge_level": "medium", "is_24h": "yes", "access": "public", "nearest_station": "Vevey"}}, {"type": "Feature", "geometry": {"type": "Point", "coordinates": [6.832416, 46.482243]}, "properties": {"name": "GreenMotion", "operator": "GreenMotion", "connectors": "Type 2 Outlet", "capacity": "1", "power_kw": "22.0", "charge_level": "medium", "is_24h": "yes", "access": "public", "nearest_station": "Vevey"}}, {"type": "Feature", "geometry": {"type": "Point", "coordinates": [6.833058, 46.468564]}, "properties": {"name": "Plenitude On The Road", "operator": "Plenitude", "connectors": "CCS Combo 2 Plug (Cable Attached);Type 2 Outlet", "capacity": "3", "power_kw": "", "charge_level": "", "is_24h": "no", "access": "public", "nearest_station": "Vevey"}}, {"type": "Feature", "geometry": {"type": "Point", "coordinates": [6.8397803, 46.4668226]}, "properties": {"name": "evpass Montreux West", "operator": "Shell Recharge", "connectors": "Type1 7kW+Type2 22kW", "capacity": "1", "power_kw": "22.0", "charge_level": "medium", "is_24h": "yes", "access": "public", "nearest_station": "Vevey"}}, {"type": "Feature", "geometry": {"type": "Point", "coordinates": [6.840162, 46.463941]}, "properties": {"name": "Migrol", "operator": "Migrol", "connectors": "CCS Combo 2 Plug (Cable Attached)", "capacity": "2", "power_kw": "50.0", "charge_level": "fast", "is_24h": "no", "access": "public", "nearest_station": "Vevey"}}, {"type": "Feature", "geometry": {"type": "Point", "coordinates": [6.840363, 46.462776]}, "properties": {"name": "Shell Recharge", "operator": "Shell Recharge", "connectors": "Type 2 Outlet", "capacity": "2", "power_kw": "22.0", "charge_level": "medium", "is_24h": "yes", "access": "public", "nearest_station": "Vevey"}}, {"type": "Feature", "geometry": {"type": "Point", "coordinates": [6.8416619, 46.4599597]}, "properties": {"name": "Move Montreux Station", "operator": "MOVE", "connectors": "Type2 22kW", "capacity": "1", "power_kw": "", "charge_level": "", "is_24h": "", "access": "public", "nearest_station": "Vevey"}}, {"type": "Feature", "geometry": {"type": "Point", "coordinates": [6.8416884, 46.4600065]}, "properties": {"name": "MOVE Montreux Station 2", "operator": "MOVE", "connectors": "Type2 24kW", "capacity": "1", "power_kw": "", "charge_level": "", "is_24h": "", "access": "public", "nearest_station": "Vevey"}}, {"type": "Feature", "geometry": {"type": "Point", "coordinates": [6.84383, 46.463707]}, "properties": {"name": "Shell Recharge", "operator": "Shell Recharge", "connectors": "Type 1 Connector (Cable Attached);Type 2 Outlet", "capacity": "1", "power_kw": "22.0", "charge_level": "medium", "is_24h": "yes", "access": "public", "nearest_station": "Vevey"}}, {"type": "Feature", "geometry": {"type": "Point", "coordinates": [6.845211, 46.470552]}, "properties": {"name": "evpass", "operator": "evpass", "connectors": "Type 2 Outlet", "capacity": "1", "power_kw": "22.0", "charge_level": "medium", "is_24h": "yes", "access": "public", "nearest_station": "Vevey"}}, {"type": "Feature", "geometry": {"type": "Point", "coordinates": [6.8468947, 46.4602005]}, "properties": {"name": "evpass Montreux Parking", "operator": "Shell Recharge", "connectors": "Type1 7kW+Type2 22kW", "capacity": "1", "power_kw": "22.0", "charge_level": "medium", "is_24h": "yes", "access": "public", "nearest_station": "Vevey"}}, {"type": "Feature", "geometry": {"type": "Point", "coordinates": [6.852593, 46.475761]}, "properties": {"name": "MOVE", "operator": "MOVE", "connectors": "Type 2 Outlet", "capacity": "1", "power_kw": "22.0", "charge_level": "medium", "is_24h": "yes", "access": "public", "nearest_station": "Vevey"}}, {"type": "Feature", "geometry": {"type": "Point", "coordinates": [6.8539636, 46.4613831]}, "properties": {"name": "evpass La Tour-de-Peilz N", "operator": "", "connectors": "Type1 3.7kW+Type2 22kW", "capacity": "1", "power_kw": "", "charge_level": "", "is_24h": "", "access": "public", "nearest_station": "La Tour-de-Peilz"}}, {"type": "Feature", "geometry": {"type": "Point", "coordinates": [6.85453, 46.4572233]}, "properties": {"name": "evpass Nestl\u00e9 Visitors", "operator": "Shell Recharge", "connectors": "Type1 7kW+Type2 22kW", "capacity": "1", "power_kw": "22.0", "charge_level": "medium", "is_24h": "yes", "access": "customers", "nearest_station": "La Tour-de-Peilz"}}, {"type": "Feature", "geometry": {"type": "Point", "coordinates": [6.855097, 46.45461]}, "properties": {"name": "Plenitude On The Road", "operator": "Plenitude", "connectors": "CCS Combo 2 Plug (Cable Attached);Type 2 Outlet", "capacity": "6", "power_kw": "", "charge_level": "", "is_24h": "no", "access": "public", "nearest_station": "La Tour-de-Peilz"}}, {"type": "Feature", "geometry": {"type": "Point", "coordinates": [6.8576, 46.452346]}, "properties": {"name": "Shell Recharge", "operator": "Shell Recharge", "connectors": "Type 1 Connector (Cable Attached);Type 2 Outlet", "capacity": "1", "power_kw": "22.0", "charge_level": "medium", "is_24h": "yes", "access": "public", "nearest_station": "La Tour-de-Peilz"}}, {"type": "Feature", "geometry": {"type": "Point", "coordinates": [6.858526, 46.452439]}, "properties": {"name": "Shell Recharge", "operator": "Shell Recharge", "connectors": "CCS Combo 2 Plug (Cable Attached);CHAdeMO;Type 1 Connector (Cable Attached);Type 2 Outlet", "capacity": "3", "power_kw": "22.0", "charge_level": "medium", "is_24h": "yes", "access": "public", "nearest_station": "La Tour-de-Peilz"}}, {"type": "Feature", "geometry": {"type": "Point", "coordinates": [6.8594381, 46.449747]}, "properties": {"name": "evpass Vevey Centre 2", "operator": "", "connectors": "Type1 7kW+Type2 22kW", "capacity": "1", "power_kw": "", "charge_level": "", "is_24h": "", "access": "public", "nearest_station": "La Tour-de-Peilz"}}, {"type": "Feature", "geometry": {"type": "Point", "coordinates": [6.8595156, 46.4497224]}, "properties": {"name": "evpass Vevey Centre", "operator": "", "connectors": "Type1 7kW+Type2 22kW", "capacity": "1", "power_kw": "", "charge_level": "", "is_24h": "", "access": "public", "nearest_station": "La Tour-de-Peilz"}}, {"type": "Feature", "geometry": {"type": "Point", "coordinates": [6.8663745, 46.4569883]}, "properties": {"name": "evpass La Tour-de-Peilz", "operator": "GreenMotion", "connectors": "Type1 7kW+Type2 22kW", "capacity": "1", "power_kw": "", "charge_level": "", "is_24h": "", "access": "public", "nearest_station": "La Tour-de-Peilz"}}, {"type": "Feature", "geometry": {"type": "Point", "coordinates": [6.8720313, 46.4486627]}, "properties": {"name": "Mercedes Private Vevey", "operator": "Mercedes", "connectors": "Type2 22kW", "capacity": "1", "power_kw": "", "charge_level": "", "is_24h": "", "access": "private", "nearest_station": "La Tour-de-Peilz"}}, {"type": "Feature", "geometry": {"type": "Point", "coordinates": [6.8812096, 46.4709825]}, "properties": {"name": "bike-energy Clarens", "operator": "bike-energy", "connectors": "e-bike charging", "capacity": "5", "power_kw": "22.0", "charge_level": "medium", "is_24h": "yes", "access": "public", "nearest_station": "La Tour-de-Peilz"}}, {"type": "Feature", "geometry": {"type": "Point", "coordinates": [6.8815966, 46.4714529]}, "properties": {"name": "evpass Clarens", "operator": "Shell Recharge", "connectors": "Type1 7kW+Type2 22kW", "capacity": "1", "power_kw": "22.0", "charge_level": "medium", "is_24h": "yes", "access": "public", "nearest_station": "La Tour-de-Peilz"}}, {"type": "Feature", "geometry": {"type": "Point", "coordinates": [6.8962401, 46.4646545]}, "properties": {"name": "evpass Corseaux", "operator": "Shell Recharge", "connectors": "Type1 7kW+Type2 22kW", "capacity": "1", "power_kw": "22.0", "charge_level": "medium", "is_24h": "yes", "access": "public", "nearest_station": "La Tour-de-Peilz"}}, {"type": "Feature", "geometry": {"type": "Point", "coordinates": [6.905937, 46.438232]}, "properties": {"name": "MOVE", "operator": "MOVE", "connectors": "Type 2 Outlet", "capacity": "1", "power_kw": "22.0", "charge_level": "medium", "is_24h": "yes", "access": "public", "nearest_station": "Montreux"}}, {"type": "Feature", "geometry": {"type": "Point", "coordinates": [6.9099375, 46.4326358]}, "properties": {"name": "evpass Montreux Centre", "operator": "GreenMotion", "connectors": "Type1 7kW+Type2 22kW", "capacity": "2", "power_kw": "22.0", "charge_level": "medium", "is_24h": "yes", "access": "public", "nearest_station": "Montreux"}}, {"type": "Feature", "geometry": {"type": "Point", "coordinates": [6.9106841, 46.4354654]}, "properties": {"name": "evpass Montreux Parkhaus 2", "operator": "Shell Recharge", "connectors": "Type1 7kW+Type2 22kW", "capacity": "2", "power_kw": "22.0", "charge_level": "medium", "is_24h": "yes", "access": "public", "nearest_station": "Montreux"}}, {"type": "Feature", "geometry": {"type": "Point", "coordinates": [6.912206, 46.429463]}, "properties": {"name": "MOVE", "operator": "MOVE", "connectors": "CCS Combo 2 Plug (Cable Attached)", "capacity": "1", "power_kw": "24.0", "charge_level": "fast", "is_24h": "yes", "access": "public", "nearest_station": "Montreux"}}, {"type": "Feature", "geometry": {"type": "Point", "coordinates": [6.9160331, 46.4379706]}, "properties": {"name": "Fastned Le Pertit A9", "operator": "Fastned", "connectors": "CHAdeMO 50kW+CCS 300kW", "capacity": "4", "power_kw": "300.0", "charge_level": "ultra-fast", "is_24h": "yes", "access": "public", "nearest_station": "Montreux"}}, {"type": "Feature", "geometry": {"type": "Point", "coordinates": [6.9162584, 46.439192]}, "properties": {"name": "Fastned Le Pertit A9 (2)", "operator": "Fastned", "connectors": "CHAdeMO 50kW+CCS 300kW", "capacity": "4", "power_kw": "300.0", "charge_level": "ultra-fast", "is_24h": "yes", "access": "public", "nearest_station": "Montreux"}}, {"type": "Feature", "geometry": {"type": "Point", "coordinates": [6.9164566, 46.4314964]}, "properties": {"name": "evpass Montreux Parkhaus", "operator": "Shell Recharge", "connectors": "Type1 7kW+Type2 22kW", "capacity": "2", "power_kw": "22.0", "charge_level": "medium", "is_24h": "yes", "access": "public", "nearest_station": "Territet"}}, {"type": "Feature", "geometry": {"type": "Point", "coordinates": [6.9199221, 46.3873166]}, "properties": {"name": "evpass Villeneuve Marina", "operator": "Plenitude On The Road", "connectors": "Type1 7kW+Type2 22kW", "capacity": "2", "power_kw": "", "charge_level": "", "is_24h": "no", "access": "public", "nearest_station": "Villeneuve"}}, {"type": "Feature", "geometry": {"type": "Point", "coordinates": [6.9201258, 46.3873852]}, "properties": {"name": "CEE Station Villeneuve", "operator": "Plenitude On The Road", "connectors": "CEE 7kW+22kW", "capacity": "6", "power_kw": "", "charge_level": "", "is_24h": "no", "access": "public", "nearest_station": "Villeneuve"}}, {"type": "Feature", "geometry": {"type": "Point", "coordinates": [6.9215168, 46.3852556]}, "properties": {"name": "evpass Villeneuve Fast", "operator": "Shell Recharge", "connectors": "CHAdeMO 50kW+Type2 22kW+CCS 50kW", "capacity": "1", "power_kw": "160.0", "charge_level": "ultra-fast", "is_24h": "yes", "access": "public", "nearest_station": "Villeneuve"}}, {"type": "Feature", "geometry": {"type": "Point", "coordinates": [6.9217618, 46.3952107]}, "properties": {"name": "evpass Villeneuve", "operator": "Shell Recharge", "connectors": "Type1 7kW+Type2 22kW", "capacity": "1", "power_kw": "22.0", "charge_level": "medium", "is_24h": "yes", "access": "public", "nearest_station": "Villeneuve"}}, {"type": "Feature", "geometry": {"type": "Point", "coordinates": [6.925765, 46.396297]}, "properties": {"name": "eCarUp", "operator": "eCarUp", "connectors": "CCS Combo 2 Plug (Cable Attached)", "capacity": "1", "power_kw": "44.0", "charge_level": "fast", "is_24h": "yes", "access": "public", "nearest_station": "Villeneuve"}}, {"type": "Feature", "geometry": {"type": "Point", "coordinates": [6.9260538, 46.4321519]}, "properties": {"name": "evpass Territet Hotel", "operator": "Shell Recharge", "connectors": "Type1 7kW+Type2 22kW", "capacity": "1", "power_kw": "22.0", "charge_level": "medium", "is_24h": "yes", "access": "customers", "nearest_station": "Territet"}}, {"type": "Feature", "geometry": {"type": "Point", "coordinates": [6.9279282, 46.382901]}, "properties": {"name": "Move Villeneuve", "operator": "MOVE", "connectors": "Type2 22kW", "capacity": "2", "power_kw": "11.0", "charge_level": "medium", "is_24h": "yes", "access": "public", "nearest_station": "Villeneuve"}}, {"type": "Feature", "geometry": {"type": "Point", "coordinates": [6.9298614, 46.3867689]}, "properties": {"name": "Swisscharge Villeneuve", "operator": "Energie 360\u00b0", "connectors": "Type2 22kW", "capacity": "2", "power_kw": "64.0", "charge_level": "ultra-fast", "is_24h": "yes", "access": "public", "nearest_station": "Villeneuve"}}, {"type": "Feature", "geometry": {"type": "Point", "coordinates": [6.9299248, 46.38676]}, "properties": {"name": "Energie360 Villeneuve Fast", "operator": "Energie 360\u00b0", "connectors": "CHAdeMO 135kW+Type2 22kW+CCS 135kW", "capacity": "1", "power_kw": "64.0", "charge_level": "ultra-fast", "is_24h": "yes", "access": "public", "nearest_station": "Villeneuve"}}, {"type": "Feature", "geometry": {"type": "Point", "coordinates": [6.9350797, 46.386837]}, "properties": {"name": "evpass Villeneuve East", "operator": "Shell Recharge", "connectors": "Type1 7kW+Type2 22kW", "capacity": "2", "power_kw": "22.0", "charge_level": "medium", "is_24h": "yes", "access": "public", "nearest_station": "Villeneuve"}}]}