{"type": "FeatureCollection", "features": [{"type": "Feature", "geometry": {"type": "Point", "coordinates": [6.139265, 46.20419]}, "properties": {"name": "Quai des Forces-Motrices", "provider": "donkey_ge", "capacity": "3", "vehicle_types": ""}}, {"type": "Feature", "geometry": {"type": "Point", "coordinates": [6.1282268, 46.20125]}, "properties": {"name": "Av. de la Jonction", "provider": "donkey_ge", "capacity": "4", "vehicle_types": ""}}, {"type": "Feature", "geometry": {"type": "Point", "coordinates": [6.16604, 46.209057]}, "properties": {"name": "Quai Gustave-Ador", "provider": "donkey_ge", "capacity": "10", "vehicle_types": ""}}, {"type": "Feature", "geometry": {"type": "Point", "coordinates": [6.141731, 46.202385]}, "properties": {"name": "Boulevard du Th\u00e9\u00e2tre", "provider": "donkey_ge", "capacity": "8", "vehicle_types": ""}}, {"type": "Feature", "geometry": {"type": "Point", "coordinates": [6.1298637, 46.227886]}, "properties": {"name": "Grand Morillon IUHEI", "provider": "donkey_ge", "capacity": "5", "vehicle_types": ""}}, {"type": "Feature", "geometry": {"type": "Point", "coordinates": [6.077523, 46.22056]}, "properties": {"name": "Chemin de l'Emeraude ", "provider": "donkey_ge", "capacity": "10", "vehicle_types": ""}}, {"type": "Feature", "geometry": {"type": "Point", "coordinates": [6.152671, 46.21121]}, "properties": {"name": "Bains des P\u00e2quis", "provider": "donkey_ge", "capacity": "33", "vehicle_types": ""}}, {"type": "Feature", "geometry": {"type": "Point", "coordinates": [6.1390624, 46.180313]}, "properties": {"name": "Carouge Rondeau", "provider": "donkey_ge", "capacity": "6", "vehicle_types": ""}}, {"type": "Feature", "geometry": {"type": "Point", "coordinates": [6.128647, 46.209133]}, "properties": {"name": "Lamartine", "provider": "donkey_ge", "capacity": "4", "vehicle_types": ""}}, {"type": "Feature", "geometry": {"type": "Point", "coordinates": [6.0909953, 46.223454]}, "properties": {"name": "En Chardon (tpg_event)", "provider": "donkey_ge", "capacity": "8", "vehicle_types": ""}}, {"type": "Feature", "geometry": {"type": "Point", "coordinates": [6.108348, 46.19142]}, "properties": {"name": "Chemin de la Caroline", "provider": "donkey_ge", "capacity": "5", "vehicle_types": ""}}, {"type": "Feature", "geometry": {"type": "Point", "coordinates": [6.1667147, 46.209373]}, "properties": {"name": "Parc des Eaux-Vives ", "provider": "donkey_ge", "capacity": "15", "vehicle_types": ""}}, {"type": "Feature", "geometry": {"type": "Point", "coordinates": [6.0921664, 46.21857]}, "properties": {"name": "L'Echarpine ", "provider": "donkey_ge", "capacity": "4", "vehicle_types": ""}}, {"type": "Feature", "geometry": {"type": "Point", "coordinates": [6.1238675, 46.180202]}, "properties": {"name": "Piscine de Marignac Lancy", "provider": "donkey_ge", "capacity": "8", "vehicle_types": ""}}, {"type": "Feature", "geometry": {"type": "Point", "coordinates": [6.116958, 46.20906]}, "properties": {"name": "Chemin des Sports", "provider": "donkey_ge", "capacity": "5", "vehicle_types": ""}}, {"type": "Feature", "geometry": {"type": "Point", "coordinates": [6.121748, 46.212414]}, "properties": {"name": "Edouard-Rod", "provider": "donkey_ge", "capacity": "6", "vehicle_types": ""}}, {"type": "Feature", "geometry": {"type": "Point", "coordinates": [6.1634417, 46.208054]}, "properties": {"name": "Baby-Plage ", "provider": "donkey_ge", "capacity": "15", "vehicle_types": ""}}, {"type": "Feature", "geometry": {"type": "Point", "coordinates": [6.1433115, 46.203808]}, "properties": {"name": "Rue de la Conf\u00e9d\u00e9ration 2", "provider": "donkey_ge", "capacity": "6", "vehicle_types": ""}}, {"type": "Feature", "geometry": {"type": "Point", "coordinates": [6.1381164, 46.216694]}, "properties": {"name": "Rue du Vidollet", "provider": "donkey_ge", "capacity": "4", "vehicle_types": ""}}, {"type": "Feature", "geometry": {"type": "Point", "coordinates": [6.132916, 46.18802]}, "properties": {"name": "Rue du L\u00e9opard ", "provider": "donkey_ge", "capacity": "5", "vehicle_types": ""}}, {"type": "Feature", "geometry": {"type": "Point", "coordinates": [6.1460943, 46.20416]}, "properties": {"name": "Place de la Fusterie", "provider": "donkey_ge", "capacity": "6", "vehicle_types": ""}}, {"type": "Feature", "geometry": {"type": "Point", "coordinates": [6.107494, 46.19367]}, "properties": {"name": "Grandes-Communes 20", "provider": "donkey_ge", "capacity": "8", "vehicle_types": ""}}, {"type": "Feature", "geometry": {"type": "Point", "coordinates": [6.1404057, 46.209145]}, "properties": {"name": "Gare Cornavin gallerie", "provider": "donkey_ge", "capacity": "10", "vehicle_types": ""}}, {"type": "Feature", "geometry": {"type": "Point", "coordinates": [6.1587205, 46.203213]}, "properties": {"name": "Rue Henri-Blanvalet", "provider": "donkey_ge", "capacity": "2", "vehicle_types": ""}}, {"type": "Feature", "geometry": {"type": "Point", "coordinates": [6.12005, 46.20685]}, "properties": {"name": "Avenue d'A\u00efre", "provider": "donkey_ge", "capacity": "3", "vehicle_types": ""}}, {"type": "Feature", "geometry": {"type": "Point", "coordinates": [6.16198, 46.200043]}, "properties": {"name": "Jungle Pop", "provider": "donkey_ge", "capacity": "5", "vehicle_types": ""}}, {"type": "Feature", "geometry": {"type": "Point", "coordinates": [6.155581, 46.203133]}, "properties": {"name": "Place Camoletti", "provider": "donkey_ge", "capacity": "2", "vehicle_types": ""}}, {"type": "Feature", "geometry": {"type": "Point", "coordinates": [6.147344, 46.20464]}, "properties": {"name": "Rh\u00f4ne Quai g\u00e9n\u00e9ral Guisan", "provider": "donkey_ge", "capacity": "14", "vehicle_types": ""}}, {"type": "Feature", "geometry": {"type": "Point", "coordinates": [6.121289, 46.182087]}, "properties": {"name": "Chemin du 1er Ao\u00fbt", "provider": "donkey_ge", "capacity": "3", "vehicle_types": ""}}, {"type": "Feature", "geometry": {"type": "Point", "coordinates": [6.105861, 46.202538]}, "properties": {"name": "Route d'A\u00efre 175", "provider": "donkey_ge", "capacity": "5", "vehicle_types": ""}}, {"type": "Feature", "geometry": {"type": "Point", "coordinates": [6.1019077, 46.18314]}, "properties": {"name": "Rochette", "provider": "donkey_ge", "capacity": "3", "vehicle_types": ""}}, {"type": "Feature", "geometry": {"type": "Point", "coordinates": [6.1175585, 46.18575]}, "properties": {"name": "Banc-B\u00e9nit 35", "provider": "donkey_ge", "capacity": "4", "vehicle_types": ""}}, {"type": "Feature", "geometry": {"type": "Point", "coordinates": [6.1204996, 46.18211]}, "properties": {"name": "Lancy-Place du 1e Ao\u00fbt 2 (P\u00f4le de Mobilit\u00e9)", "provider": "donkey_ge", "capacity": "6", "vehicle_types": ""}}, {"type": "Feature", "geometry": {"type": "Point", "coordinates": [6.1699424, 46.288883]}, "properties": {"name": "Port-Choiseul", "provider": "donkey_ge", "capacity": "5", "vehicle_types": ""}}, {"type": "Feature", "geometry": {"type": "Point", "coordinates": [6.122682, 46.184868]}, "properties": {"name": "Route du Grand-Lancy 39", "provider": "donkey_ge", "capacity": "3", "vehicle_types": ""}}, {"type": "Feature", "geometry": {"type": "Point", "coordinates": [6.1646395, 46.19993]}, "properties": {"name": "Route de Ch\u00eane", "provider": "donkey_ge", "capacity": "5", "vehicle_types": ""}}, {"type": "Feature", "geometry": {"type": "Point", "coordinates": [6.112903, 46.211338]}, "properties": {"name": "Ch\u00e2telaine 74", "provider": "donkey_ge", "capacity": "6", "vehicle_types": ""}}, {"type": "Feature", "geometry": {"type": "Point", "coordinates": [6.0868163, 46.216614]}, "properties": {"name": "Mahi", "provider": "donkey_ge", "capacity": "6", "vehicle_types": ""}}, {"type": "Feature", "geometry": {"type": "Point", "coordinates": [6.1488986, 46.203243]}, "properties": {"name": "Robert-C\u00e9ard 10", "provider": "donkey_ge", "capacity": "6", "vehicle_types": ""}}, {"type": "Feature", "geometry": {"type": "Point", "coordinates": [6.138704, 46.20842]}, "properties": {"name": "Jean-Dassier", "provider": "donkey_ge", "capacity": "2", "vehicle_types": ""}}, {"type": "Feature", "geometry": {"type": "Point", "coordinates": [6.130007, 46.204926]}, "properties": {"name": "Beau-Site ", "provider": "donkey_ge", "capacity": "5", "vehicle_types": ""}}, {"type": "Feature", "geometry": {"type": "Point", "coordinates": [6.1663127, 46.200687]}, "properties": {"name": "Gare des Eaux-Vives", "provider": "donkey_ge", "capacity": "20", "vehicle_types": ""}}, {"type": "Feature", "geometry": {"type": "Point", "coordinates": [6.147544, 46.193317]}, "properties": {"name": "H\u00f4pital 1", "provider": "donkey_ge", "capacity": "6", "vehicle_types": ""}}, {"type": "Feature", "geometry": {"type": "Point", "coordinates": [6.13053, 46.200996]}, "properties": {"name": "Jonction", "provider": "donkey_ge", "capacity": "9", "vehicle_types": ""}}, {"type": "Feature", "geometry": {"type": "Point", "coordinates": [6.1466746, 46.196556]}, "properties": {"name": "Rue de L'Ecole-de-Chimie", "provider": "donkey_ge", "capacity": "5", "vehicle_types": ""}}, {"type": "Feature", "geometry": {"type": "Point", "coordinates": [6.1406665, 46.21]}, "properties": {"name": "Gare Cornavin Montbrillant", "provider": "donkey_ge", "capacity": "15", "vehicle_types": ""}}, {"type": "Feature", "geometry": {"type": "Point", "coordinates": [6.1589403, 46.20424]}, "properties": {"name": "Le Shogun", "provider": "donkey_ge", "capacity": "1", "vehicle_types": ""}}, {"type": "Feature", "geometry": {"type": "Point", "coordinates": [6.148301, 46.21354]}, "properties": {"name": "Rue de Berne 65", "provider": "donkey_ge", "capacity": "5", "vehicle_types": ""}}, {"type": "Feature", "geometry": {"type": "Point", "coordinates": [6.160724, 46.202396]}, "properties": {"name": "Rue du Nant 12", "provider": "donkey_ge", "capacity": "6", "vehicle_types": ""}}, {"type": "Feature", "geometry": {"type": "Point", "coordinates": [6.1441193, 46.206875]}, "properties": {"name": "Rousseau 5", "provider": "donkey_ge", "capacity": "8", "vehicle_types": ""}}, {"type": "Feature", "geometry": {"type": "Point", "coordinates": [6.1414003, 46.20284]}, "properties": {"name": "Beth-Yaacov", "provider": "donkey_ge", "capacity": "6", "vehicle_types": ""}}, {"type": "Feature", "geometry": {"type": "Point", "coordinates": [6.133333, 46.193546]}, "properties": {"name": "Vernets", "provider": "donkey_ge", "capacity": "6", "vehicle_types": ""}}, {"type": "Feature", "geometry": {"type": "Point", "coordinates": [6.137736, 46.20319]}, "properties": {"name": "Rue des Rois", "provider": "donkey_ge", "capacity": "6", "vehicle_types": ""}}, {"type": "Feature", "geometry": {"type": "Point", "coordinates": [6.1272745, 46.206017]}, "properties": {"name": "Mileant", "provider": "donkey_ge", "capacity": "4", "vehicle_types": ""}}, {"type": "Feature", "geometry": {"type": "Point", "coordinates": [6.133857, 46.171295]}, "properties": {"name": "Chemin de Compostelle 7", "provider": "donkey_ge", "capacity": "8", "vehicle_types": ""}}, {"type": "Feature", "geometry": {"type": "Point", "coordinates": [6.135267, 46.201233]}, "properties": {"name": "Sainte-Clotilde", "provider": "donkey_ge", "capacity": "4", "vehicle_types": ""}}, {"type": "Feature", "geometry": {"type": "Point", "coordinates": [6.1594763, 46.20279]}, "properties": {"name": "Montchoisy 8", "provider": "donkey_ge", "capacity": "2", "vehicle_types": ""}}, {"type": "Feature", "geometry": {"type": "Point", "coordinates": [6.142793, 46.205715]}, "properties": {"name": "Place St-Gervais", "provider": "donkey_ge", "capacity": "20", "vehicle_types": ""}}, {"type": "Feature", "geometry": {"type": "Point", "coordinates": [6.15785, 46.205315]}, "properties": {"name": "31 D\u00e9cembre 6", "provider": "donkey_ge", "capacity": "3", "vehicle_types": ""}}, {"type": "Feature", "geometry": {"type": "Point", "coordinates": [6.1607704, 46.205746]}, "properties": {"name": "Av. De la Grenade 11", "provider": "donkey_ge", "capacity": "2", "vehicle_types": ""}}, {"type": "Feature", "geometry": {"type": "Point", "coordinates": [6.125495, 46.223125]}, "properties": {"name": "Chemin de la Tourelle 17", "provider": "donkey_ge", "capacity": "5", "vehicle_types": ""}}, {"type": "Feature", "geometry": {"type": "Point", "coordinates": [6.12853, 46.18017]}, "properties": {"name": "La Praille ", "provider": "donkey_ge", "capacity": "12", "vehicle_types": ""}}, {"type": "Feature", "geometry": {"type": "Point", "coordinates": [6.106326, 46.22946]}, "properties": {"name": "WTC", "provider": "donkey_ge", "capacity": "8", "vehicle_types": ""}}, {"type": "Feature", "geometry": {"type": "Point", "coordinates": [6.1432304, 46.196537]}, "properties": {"name": "Leschot", "provider": "donkey_ge", "capacity": "6", "vehicle_types": ""}}, {"type": "Feature", "geometry": {"type": "Point", "coordinates": [6.100424, 46.20412]}, "properties": {"name": "Piscine du Lignon", "provider": "donkey_ge", "capacity": "12", "vehicle_types": ""}}, {"type": "Feature", "geometry": {"type": "Point", "coordinates": [6.1371927, 46.198605]}, "properties": {"name": "Rue des Bains 31", "provider": "donkey_ge", "capacity": "4", "vehicle_types": ""}}, {"type": "Feature", "geometry": {"type": "Point", "coordinates": [6.09852, 46.219917]}, "properties": {"name": "TCS", "provider": "donkey_ge", "capacity": "5", "vehicle_types": ""}}, {"type": "Feature", "geometry": {"type": "Point", "coordinates": [6.111045, 46.216633]}, "properties": {"name": "Av. De Crozet 48", "provider": "donkey_ge", "capacity": "3", "vehicle_types": ""}}, {"type": "Feature", "geometry": {"type": "Point", "coordinates": [6.1318984, 46.20189]}, "properties": {"name": "Plantaporr\u00eats 6", "provider": "donkey_ge", "capacity": "5", "vehicle_types": ""}}, {"type": "Feature", "geometry": {"type": "Point", "coordinates": [6.1291747, 46.186886]}, "properties": {"name": "Av. De la Praille 55", "provider": "donkey_ge", "capacity": "4", "vehicle_types": ""}}, {"type": "Feature", "geometry": {"type": "Point", "coordinates": [6.137969, 46.191242]}, "properties": {"name": "Grand-Bureau 7", "provider": "donkey_ge", "capacity": "6", "vehicle_types": ""}}, {"type": "Feature", "geometry": {"type": "Point", "coordinates": [6.153914, 46.201725]}, "properties": {"name": "Rond-Point de Rive", "provider": "donkey_ge", "capacity": "6", "vehicle_types": ""}}, {"type": "Feature", "geometry": {"type": "Point", "coordinates": [6.1418333, 46.185307]}, "properties": {"name": "Roi-Victor-Am\u00e9 3", "provider": "donkey_ge", "capacity": "6", "vehicle_types": ""}}, {"type": "Feature", "geometry": {"type": "Point", "coordinates": [6.1401124, 46.193153]}, "properties": {"name": "Charles Page", "provider": "donkey_ge", "capacity": "6", "vehicle_types": ""}}, {"type": "Feature", "geometry": {"type": "Point", "coordinates": [6.1429663, 46.19966]}, "properties": {"name": "Uni Dufour", "provider": "donkey_ge", "capacity": "10", "vehicle_types": ""}}, {"type": "Feature", "geometry": {"type": "Point", "coordinates": [6.141155, 46.1996]}, "properties": {"name": "Plainpalais", "provider": "donkey_ge", "capacity": "20", "vehicle_types": ""}}, {"type": "Feature", "geometry": {"type": "Point", "coordinates": [6.137622, 46.200817]}, "properties": {"name": "Sablons", "provider": "donkey_ge", "capacity": "6", "vehicle_types": ""}}, {"type": "Feature", "geometry": {"type": "Point", "coordinates": [6.138703, 46.1915]}, "properties": {"name": "Rue Caroline 11", "provider": "donkey_ge", "capacity": "2", "vehicle_types": ""}}, {"type": "Feature", "geometry": {"type": "Point", "coordinates": [6.1279697, 46.187428]}, "properties": {"name": "P+R Etoile (P\u00f4le de Mobilit\u00e9)", "provider": "donkey_ge", "capacity": "6", "vehicle_types": ""}}, {"type": "Feature", "geometry": {"type": "Point", "coordinates": [6.1530623, 46.20144]}, "properties": {"name": "Rive", "provider": "donkey_ge", "capacity": "20", "vehicle_types": ""}}, {"type": "Feature", "geometry": {"type": "Point", "coordinates": [6.1142488, 46.181087]}, "properties": {"name": "Grand-Lancy 112", "provider": "donkey_ge", "capacity": "5", "vehicle_types": ""}}, {"type": "Feature", "geometry": {"type": "Point", "coordinates": [6.1284356, 46.17418]}, "properties": {"name": "Carrefour Bachet", "provider": "donkey_ge", "capacity": "12", "vehicle_types": ""}}, {"type": "Feature", "geometry": {"type": "Point", "coordinates": [6.129953, 46.173973]}, "properties": {"name": "Lancy-Bachet-Gare (P\u00f4le de Mobilit\u00e9)", "provider": "donkey_ge", "capacity": "17", "vehicle_types": ""}}, {"type": "Feature", "geometry": {"type": "Point", "coordinates": [6.128445, 46.19393]}, "properties": {"name": "Rue Eug\u00e8ne-Marziano 22", "provider": "donkey_ge", "capacity": "3", "vehicle_types": ""}}, {"type": "Feature", "geometry": {"type": "Point", "coordinates": [6.1380224, 46.203896]}, "properties": {"name": "Coulouvreni\u00e8re", "provider": "donkey_ge", "capacity": "6", "vehicle_types": ""}}, {"type": "Feature", "geometry": {"type": "Point", "coordinates": [6.1315327, 46.202457]}, "properties": {"name": "Plantaporr\u00eats 4", "provider": "donkey_ge", "capacity": "5", "vehicle_types": ""}}, {"type": "Feature", "geometry": {"type": "Point", "coordinates": [6.1443787, 46.191193]}, "properties": {"name": "Augustins", "provider": "donkey_ge", "capacity": "5", "vehicle_types": ""}}, {"type": "Feature", "geometry": {"type": "Point", "coordinates": [6.1369486, 46.203915]}, "properties": {"name": "La Turbine", "provider": "donkey_ge", "capacity": "4", "vehicle_types": ""}}, {"type": "Feature", "geometry": {"type": "Point", "coordinates": [6.1270084, 46.187714]}, "properties": {"name": "Gare Lancy Pont-Rouge", "provider": "donkey_ge", "capacity": "20", "vehicle_types": ""}}, {"type": "Feature", "geometry": {"type": "Point", "coordinates": [6.134086, 46.190765]}, "properties": {"name": "Eug\u00e8ne-Marziano", "provider": "donkey_ge", "capacity": "2", "vehicle_types": ""}}, {"type": "Feature", "geometry": {"type": "Point", "coordinates": [6.1345086, 46.198967]}, "properties": {"name": "Village-Suisse", "provider": "donkey_ge", "capacity": "6", "vehicle_types": ""}}, {"type": "Feature", "geometry": {"type": "Point", "coordinates": [6.128456, 46.192745]}, "properties": {"name": "Route des Jeunes", "provider": "donkey_ge", "capacity": "4", "vehicle_types": ""}}, {"type": "Feature", "geometry": {"type": "Point", "coordinates": [6.163336, 46.195545]}, "properties": {"name": "Krieg", "provider": "donkey_ge", "capacity": "5", "vehicle_types": ""}}, {"type": "Feature", "geometry": {"type": "Point", "coordinates": [6.078382, 46.21321]}, "properties": {"name": "Appart'City", "provider": "donkey_ge", "capacity": "5", "vehicle_types": ""}}, {"type": "Feature", "geometry": {"type": "Point", "coordinates": [6.133389, 46.18922]}, "properties": {"name": "Rue de la Gabelle1", "provider": "donkey_ge", "capacity": "5", "vehicle_types": ""}}, {"type": "Feature", "geometry": {"type": "Point", "coordinates": [6.1340623, 46.203064]}, "properties": {"name": "Palladium", "provider": "donkey_ge", "capacity": "20", "vehicle_types": ""}}, {"type": "Feature", "geometry": {"type": "Point", "coordinates": [6.142505, 46.209354]}, "properties": {"name": "Gen\u00e8ve Cornavin", "provider": "donkey_ge", "capacity": "15", "vehicle_types": ""}}, {"type": "Feature", "geometry": {"type": "Point", "coordinates": [6.140532, 46.18523]}, "properties": {"name": "Place du Temple 6", "provider": "donkey_ge", "capacity": "5", "vehicle_types": ""}}, {"type": "Feature", "geometry": {"type": "Point", "coordinates": [6.129928, 46.1969]}, "properties": {"name": "Gravi\u00e8re", "provider": "donkey_ge", "capacity": "6", "vehicle_types": ""}}, {"type": "Feature", "geometry": {"type": "Point", "coordinates": [6.111432, 46.20551]}, "properties": {"name": "Henri-Bordier ", "provider": "donkey_ge", "capacity": "4", "vehicle_types": ""}}, {"type": "Feature", "geometry": {"type": "Point", "coordinates": [6.153496, 46.19169]}, "properties": {"name": "Gare de Champel", "provider": "donkey_ge", "capacity": "6", "vehicle_types": ""}}, {"type": "Feature", "geometry": {"type": "Point", "coordinates": [6.1414313, 46.237522]}, "properties": {"name": "Pregny-Mairie", "provider": "donkey_ge", "capacity": "5", "vehicle_types": ""}}, {"type": "Feature", "geometry": {"type": "Point", "coordinates": [6.1536493, 46.193428]}, "properties": {"name": "Av. De Champel", "provider": "donkey_ge", "capacity": "5", "vehicle_types": ""}}, {"type": "Feature", "geometry": {"type": "Point", "coordinates": [6.0769005, 46.225224]}, "properties": {"name": "Rue des Entreprises ", "provider": "donkey_ge", "capacity": "3", "vehicle_types": ""}}, {"type": "Feature", "geometry": {"type": "Point", "coordinates": [6.1417384, 46.201206]}, "properties": {"name": "Dufour 14", "provider": "donkey_ge", "capacity": "3", "vehicle_types": ""}}, {"type": "Feature", "geometry": {"type": "Point", "coordinates": [6.156049, 46.195168]}, "properties": {"name": "L\u00e9on-Gaud", "provider": "donkey_ge", "capacity": "1", "vehicle_types": ""}}, {"type": "Feature", "geometry": {"type": "Point", "coordinates": [6.099894, 46.208908]}, "properties": {"name": "SGIPA Bois-des-Fr\u00e8res", "provider": "donkey_ge", "capacity": "4", "vehicle_types": ""}}, {"type": "Feature", "geometry": {"type": "Point", "coordinates": [6.1185303, 46.188774]}, "properties": {"name": "Chemin des P\u00e2querettes 7", "provider": "donkey_ge", "capacity": "5", "vehicle_types": ""}}, {"type": "Feature", "geometry": {"type": "Point", "coordinates": [6.1555543, 46.195564]}, "properties": {"name": "Rue de Contamines ", "provider": "donkey_ge", "capacity": "2", "vehicle_types": ""}}, {"type": "Feature", "geometry": {"type": "Point", "coordinates": [6.1447415, 46.206406]}, "properties": {"name": "Pont de la Machine", "provider": "donkey_ge", "capacity": "8", "vehicle_types": ""}}, {"type": "Feature", "geometry": {"type": "Point", "coordinates": [6.1166725, 46.185223]}, "properties": {"name": "Pr\u00e9-Monnard", "provider": "donkey_ge", "capacity": "5", "vehicle_types": ""}}, {"type": "Feature", "geometry": {"type": "Point", "coordinates": [6.142927, 46.18284]}, "properties": {"name": "Moraines ", "provider": "donkey_ge", "capacity": "3", "vehicle_types": ""}}, {"type": "Feature", "geometry": {"type": "Point", "coordinates": [6.1488295, 46.21349]}, "properties": {"name": "Rue des Buis 2", "provider": "donkey_ge", "capacity": "5", "vehicle_types": ""}}, {"type": "Feature", "geometry": {"type": "Point", "coordinates": [6.1553845, 46.295593]}, "properties": {"name": "Centre sportif Versoix", "provider": "donkey_ge", "capacity": "5", "vehicle_types": ""}}, {"type": "Feature", "geometry": {"type": "Point", "coordinates": [6.136638, 46.1869]}, "properties": {"name": "Pervenches", "provider": "donkey_ge", "capacity": "6", "vehicle_types": ""}}, {"type": "Feature", "geometry": {"type": "Point", "coordinates": [6.1716237, 46.18854]}, "properties": {"name": "Sgipa Conches", "provider": "donkey_ge", "capacity": "5", "vehicle_types": ""}}, {"type": "Feature", "geometry": {"type": "Point", "coordinates": [6.1355963, 46.18797]}, "properties": {"name": "Rue de la Gabelle 32", "provider": "donkey_ge", "capacity": "3", "vehicle_types": ""}}, {"type": "Feature", "geometry": {"type": "Point", "coordinates": [6.0833344, 46.224556]}, "properties": {"name": "Maison des Compagnies ", "provider": "donkey_ge", "capacity": "3", "vehicle_types": ""}}, {"type": "Feature", "geometry": {"type": "Point", "coordinates": [6.102972, 46.19057]}, "properties": {"name": "Av. du Gros-Ch\u00eane", "provider": "donkey_ge", "capacity": "3", "vehicle_types": ""}}, {"type": "Feature", "geometry": {"type": "Point", "coordinates": [6.1625304, 46.205395]}, "properties": {"name": "Rue Sillem", "provider": "donkey_ge", "capacity": "4", "vehicle_types": ""}}, {"type": "Feature", "geometry": {"type": "Point", "coordinates": [6.133941, 46.18575]}, "properties": {"name": "Caroubiers 21", "provider": "donkey_ge", "capacity": "4", "vehicle_types": ""}}, {"type": "Feature", "geometry": {"type": "Point", "coordinates": [6.1518207, 46.19284]}, "properties": {"name": "Chemin Thury", "provider": "donkey_ge", "capacity": "3", "vehicle_types": ""}}, {"type": "Feature", "geometry": {"type": "Point", "coordinates": [6.1612906, 46.202717]}, "properties": {"name": "Lazy Cat", "provider": "donkey_ge", "capacity": "1", "vehicle_types": ""}}, {"type": "Feature", "geometry": {"type": "Point", "coordinates": [6.09409, 46.22094]}, "properties": {"name": "Gare Vernier Nord", "provider": "donkey_ge", "capacity": "5", "vehicle_types": ""}}, {"type": "Feature", "geometry": {"type": "Point", "coordinates": [6.1015463, 46.18874]}, "properties": {"name": "Bois-de-la-Chapelle 69", "provider": "donkey_ge", "capacity": "3", "vehicle_types": ""}}, {"type": "Feature", "geometry": {"type": "Point", "coordinates": [6.1036043, 46.217308]}, "properties": {"name": "Place de l'Etang", "provider": "donkey_ge", "capacity": "4", "vehicle_types": ""}}, {"type": "Feature", "geometry": {"type": "Point", "coordinates": [6.1482806, 46.197758]}, "properties": {"name": "Cours des Bastions 10", "provider": "donkey_ge", "capacity": "5", "vehicle_types": ""}}, {"type": "Feature", "geometry": {"type": "Point", "coordinates": [6.116233, 46.18881]}, "properties": {"name": "Oliquettes - Gu\u00e9 79", "provider": "donkey_ge", "capacity": "5", "vehicle_types": ""}}, {"type": "Feature", "geometry": {"type": "Point", "coordinates": [6.1011486, 46.18181]}, "properties": {"name": "Place Duch\u00eane ", "provider": "donkey_ge", "capacity": "2", "vehicle_types": ""}}, {"type": "Feature", "geometry": {"type": "Point", "coordinates": [6.1370687, 46.19967]}, "properties": {"name": "Rue Gourgas", "provider": "donkey_ge", "capacity": "8", "vehicle_types": ""}}, {"type": "Feature", "geometry": {"type": "Point", "coordinates": [6.159289, 46.20223]}, "properties": {"name": "Rue des Photographes 2", "provider": "donkey_ge", "capacity": "3", "vehicle_types": ""}}, {"type": "Feature", "geometry": {"type": "Point", "coordinates": [6.103794, 46.174335]}, "properties": {"name": "Centre sportif des Cherpines", "provider": "donkey_ge", "capacity": "10", "vehicle_types": ""}}, {"type": "Feature", "geometry": {"type": "Point", "coordinates": [6.160819, 46.203617]}, "properties": {"name": "Montchoisy 21", "provider": "donkey_ge", "capacity": "2", "vehicle_types": ""}}, {"type": "Feature", "geometry": {"type": "Point", "coordinates": [6.0811477, 46.212814]}, "properties": {"name": "Maison Chauvet-Lullin", "provider": "donkey_ge", "capacity": "3", "vehicle_types": ""}}, {"type": "Feature", "geometry": {"type": "Point", "coordinates": [6.1391883, 46.213192]}, "properties": {"name": "Ecole des Cropettes", "provider": "donkey_ge", "capacity": "2", "vehicle_types": ""}}, {"type": "Feature", "geometry": {"type": "Point", "coordinates": [6.1637673, 46.20529]}, "properties": {"name": "Rue Merle-D'Aubign\u00e9", "provider": "donkey_ge", "capacity": "6", "vehicle_types": ""}}, {"type": "Feature", "geometry": {"type": "Point", "coordinates": [6.107094, 46.186905]}, "properties": {"name": "Bandol", "provider": "donkey_ge", "capacity": "3", "vehicle_types": ""}}, {"type": "Feature", "geometry": {"type": "Point", "coordinates": [6.1387763, 46.196373]}, "properties": {"name": "Carl-Vogt 80", "provider": "donkey_ge", "capacity": "5", "vehicle_types": ""}}, {"type": "Feature", "geometry": {"type": "Point", "coordinates": [6.137222, 46.201313]}, "properties": {"name": "Saint-Georges 60", "provider": "donkey_ge", "capacity": "6", "vehicle_types": ""}}, {"type": "Feature", "geometry": {"type": "Point", "coordinates": [6.149547, 46.214737]}, "properties": {"name": "Geneva Hostel", "provider": "donkey_ge", "capacity": "5", "vehicle_types": ""}}, {"type": "Feature", "geometry": {"type": "Point", "coordinates": [6.144248, 46.211372]}, "properties": {"name": "Rue de Lausanne 17", "provider": "donkey_ge", "capacity": "2", "vehicle_types": ""}}, {"type": "Feature", "geometry": {"type": "Point", "coordinates": [6.15607, 46.203907]}, "properties": {"name": "Muzy 7", "provider": "donkey_ge", "capacity": "1", "vehicle_types": ""}}, {"type": "Feature", "geometry": {"type": "Point", "coordinates": [6.1488423, 46.208008]}, "properties": {"name": "Jardin des Alpes", "provider": "donkey_ge", "capacity": "5", "vehicle_types": ""}}, {"type": "Feature", "geometry": {"type": "Point", "coordinates": [6.138517, 46.220516]}, "properties": {"name": "CICG", "provider": "donkey_ge", "capacity": "5", "vehicle_types": ""}}, {"type": "Feature", "geometry": {"type": "Point", "coordinates": [6.068036, 46.22334]}, "properties": {"name": "Emma Kammacher", "provider": "donkey_ge", "capacity": "5", "vehicle_types": ""}}, {"type": "Feature", "geometry": {"type": "Point", "coordinates": [6.1506667, 46.2017]}, "properties": {"name": "Verdaine 6", "provider": "donkey_ge", "capacity": "3", "vehicle_types": ""}}, {"type": "Feature", "geometry": {"type": "Point", "coordinates": [6.1383047, 46.197468]}, "properties": {"name": "Mara\u00eechers 46", "provider": "donkey_ge", "capacity": "6", "vehicle_types": ""}}, {"type": "Feature", "geometry": {"type": "Point", "coordinates": [6.1456075, 46.221348]}, "properties": {"name": "P+R S\u00e9cheron ", "provider": "donkey_ge", "capacity": "4", "vehicle_types": ""}}, {"type": "Feature", "geometry": {"type": "Point", "coordinates": [6.143026, 46.22085]}, "properties": {"name": "Maison de la Paix", "provider": "donkey_ge", "capacity": "10", "vehicle_types": ""}}, {"type": "Feature", "geometry": {"type": "Point", "coordinates": [6.1337543, 46.209698]}, "properties": {"name": "Tronchin", "provider": "donkey_ge", "capacity": "6", "vehicle_types": ""}}, {"type": "Feature", "geometry": {"type": "Point", "coordinates": [6.135223, 46.221443]}, "properties": {"name": "Ch. de la Rochette", "provider": "donkey_ge", "capacity": "7", "vehicle_types": ""}}, {"type": "Feature", "geometry": {"type": "Point", "coordinates": [6.1409183, 46.21114]}, "properties": {"name": "Rue Fendt", "provider": "donkey_ge", "capacity": "2", "vehicle_types": ""}}, {"type": "Feature", "geometry": {"type": "Point", "coordinates": [6.146612, 46.21116]}, "properties": {"name": "Rue de Berne 36", "provider": "donkey_ge", "capacity": "5", "vehicle_types": ""}}, {"type": "Feature", "geometry": {"type": "Point", "coordinates": [6.1473036, 46.20692]}, "properties": {"name": "Pont du Mont-Blanc", "provider": "donkey_ge", "capacity": "4", "vehicle_types": ""}}, {"type": "Feature", "geometry": {"type": "Point", "coordinates": [6.1313634, 46.223923]}, "properties": {"name": "Av. De-Bud\u00e9", "provider": "donkey_ge", "capacity": "5", "vehicle_types": ""}}, {"type": "Feature", "geometry": {"type": "Point", "coordinates": [6.13851, 46.18935]}, "properties": {"name": "Rue Caroline 35", "provider": "donkey_ge", "capacity": "3", "vehicle_types": ""}}, {"type": "Feature", "geometry": {"type": "Point", "coordinates": [6.1190796, 46.209663]}, "properties": {"name": "Les Ouches (P\u00f4le de Mobilit\u00e9)", "provider": "donkey_ge", "capacity": "8", "vehicle_types": ""}}, {"type": "Feature", "geometry": {"type": "Point", "coordinates": [6.148433, 46.223667]}, "properties": {"name": "Rue de Lausanne 147", "provider": "donkey_ge", "capacity": "7", "vehicle_types": ""}}, {"type": "Feature", "geometry": {"type": "Point", "coordinates": [6.0785084, 46.226807]}, "properties": {"name": "Bois du Lan", "provider": "donkey_ge", "capacity": "3", "vehicle_types": ""}}, {"type": "Feature", "geometry": {"type": "Point", "coordinates": [6.1576066, 46.190754]}, "properties": {"name": "Rue Maurice-Barraud", "provider": "donkey_ge", "capacity": "2", "vehicle_types": ""}}, {"type": "Feature", "geometry": {"type": "Point", "coordinates": [6.1272707, 46.208225]}, "properties": {"name": "Place des Charmilles", "provider": "donkey_ge", "capacity": "6", "vehicle_types": ""}}, {"type": "Feature", "geometry": {"type": "Point", "coordinates": [6.1528473, 46.19494]}, "properties": {"name": "Rue Monnier", "provider": "donkey_ge", "capacity": "2", "vehicle_types": ""}}, {"type": "Feature", "geometry": {"type": "Point", "coordinates": [6.103676, 46.18693]}, "properties": {"name": "Maison de la S\u00e9curit\u00e9", "provider": "donkey_ge", "capacity": "3", "vehicle_types": ""}}, {"type": "Feature", "geometry": {"type": "Point", "coordinates": [6.1375747, 46.186]}, "properties": {"name": "Louis-De-Montfalcon 11", "provider": "donkey_ge", "capacity": "4", "vehicle_types": ""}}, {"type": "Feature", "geometry": {"type": "Point", "coordinates": [6.145504, 46.18168]}, "properties": {"name": "Cimeti\u00e8re Carouge", "provider": "donkey_ge", "capacity": "5", "vehicle_types": ""}}, {"type": "Feature", "geometry": {"type": "Point", "coordinates": [6.113601, 46.190956]}, "properties": {"name": "Ecole d'horlogerie ", "provider": "donkey_ge", "capacity": "5", "vehicle_types": ""}}, {"type": "Feature", "geometry": {"type": "Point", "coordinates": [6.1622934, 46.20684]}, "properties": {"name": "Rue des Eaux-Vives 118", "provider": "donkey_ge", "capacity": "4", "vehicle_types": ""}}, {"type": "Feature", "geometry": {"type": "Point", "coordinates": [6.1287093, 46.21085]}, "properties": {"name": "Lamartine-Faller", "provider": "donkey_ge", "capacity": "4", "vehicle_types": ""}}, {"type": "Feature", "geometry": {"type": "Point", "coordinates": [6.101663, 46.189556]}, "properties": {"name": "Maison On\u00e9sienne", "provider": "donkey_ge", "capacity": "3", "vehicle_types": ""}}, {"type": "Feature", "geometry": {"type": "Point", "coordinates": [6.145372, 46.18909]}, "properties": {"name": "Roseraie", "provider": "donkey_ge", "capacity": "5", "vehicle_types": ""}}, {"type": "Feature", "geometry": {"type": "Point", "coordinates": [6.1039577, 46.189228]}, "properties": {"name": "Gros Ch\u00eane 26", "provider": "donkey_ge", "capacity": "2", "vehicle_types": ""}}, {"type": "Feature", "geometry": {"type": "Point", "coordinates": [6.1475224, 46.24327]}, "properties": {"name": "Gare Chamb\u00e9sy 2", "provider": "donkey_ge", "capacity": "5", "vehicle_types": ""}}, {"type": "Feature", "geometry": {"type": "Point", "coordinates": [6.08406, 46.225956]}, "properties": {"name": "Riantbosson", "provider": "donkey_ge", "capacity": "5", "vehicle_types": ""}}, {"type": "Feature", "geometry": {"type": "Point", "coordinates": [6.1380615, 46.197884]}, "properties": {"name": "Rue Marguerite-Dellenbach", "provider": "donkey_ge", "capacity": "8", "vehicle_types": ""}}, {"type": "Feature", "geometry": {"type": "Point", "coordinates": [6.081478, 46.22787]}, "properties": {"name": "Rue de la Prulay 2", "provider": "donkey_ge", "capacity": "6", "vehicle_types": ""}}, {"type": "Feature", "geometry": {"type": "Point", "coordinates": [6.1344404, 46.201374]}, "properties": {"name": "Boulevard Saint Georges", "provider": "donkey_ge", "capacity": "6", "vehicle_types": ""}}, {"type": "Feature", "geometry": {"type": "Point", "coordinates": [6.151061, 46.197884]}, "properties": {"name": "Rue Saint-Victor", "provider": "donkey_ge", "capacity": "5", "vehicle_types": ""}}, {"type": "Feature", "geometry": {"type": "Point", "coordinates": [6.1302304, 46.214695]}, "properties": {"name": "Rue Hoffmann", "provider": "donkey_ge", "capacity": "8", "vehicle_types": ""}}, {"type": "Feature", "geometry": {"type": "Point", "coordinates": [6.1114244, 46.205856]}, "properties": {"name": "Concorde", "provider": "donkey_ge", "capacity": "7", "vehicle_types": ""}}, {"type": "Feature", "geometry": {"type": "Point", "coordinates": [6.121844, 46.211426]}, "properties": {"name": "Av. Soret 33", "provider": "donkey_ge", "capacity": "5", "vehicle_types": ""}}, {"type": "Feature", "geometry": {"type": "Point", "coordinates": [6.1230235, 46.203453]}, "properties": {"name": "Devin du Village", "provider": "donkey_ge", "capacity": "8", "vehicle_types": ""}}, {"type": "Feature", "geometry": {"type": "Point", "coordinates": [6.1526666, 46.190773]}, "properties": {"name": "Champel ", "provider": "donkey_ge", "capacity": "4", "vehicle_types": ""}}, {"type": "Feature", "geometry": {"type": "Point", "coordinates": [6.1663265, 46.19176]}, "properties": {"name": "Champendale", "provider": "donkey_ge", "capacity": "4", "vehicle_types": ""}}, {"type": "Feature", "geometry": {"type": "Point", "coordinates": [6.1441603, 46.198753]}, "properties": {"name": "Uni Bastions", "provider": "donkey_ge", "capacity": "8", "vehicle_types": ""}}, {"type": "Feature", "geometry": {"type": "Point", "coordinates": [6.1506877, 46.192936]}, "properties": {"name": "Gare de Champel - H\u00f4pitaux", "provider": "donkey_ge", "capacity": "15", "vehicle_types": ""}}, {"type": "Feature", "geometry": {"type": "Point", "coordinates": [6.12569, 46.205505]}, "properties": {"name": "Beulet", "provider": "donkey_ge", "capacity": "5", "vehicle_types": ""}}, {"type": "Feature", "geometry": {"type": "Point", "coordinates": [6.132907, 46.22539]}, "properties": {"name": "Cagi_Event", "provider": "donkey_ge", "capacity": "3", "vehicle_types": ""}}, {"type": "Feature", "geometry": {"type": "Point", "coordinates": [6.1120543, 46.171093]}, "properties": {"name": "V\u00e9lodrome ( Champ-Ravy)", "provider": "donkey_ge", "capacity": "5", "vehicle_types": ""}}, {"type": "Feature", "geometry": {"type": "Point", "coordinates": [6.129202, 46.22075]}, "properties": {"name": "Adolphe-Pasteur", "provider": "donkey_ge", "capacity": "5", "vehicle_types": ""}}, {"type": "Feature", "geometry": {"type": "Point", "coordinates": [6.1345487, 46.19643]}, "properties": {"name": "Ansermet - Bains", "provider": "donkey_ge", "capacity": "6", "vehicle_types": ""}}, {"type": "Feature", "geometry": {"type": "Point", "coordinates": [6.1485443, 46.194256]}, "properties": {"name": "H\u00f4pital 2", "provider": "donkey_ge", "capacity": "8", "vehicle_types": ""}}, {"type": "Feature", "geometry": {"type": "Point", "coordinates": [6.115146, 46.19009]}, "properties": {"name": "Solitude", "provider": "donkey_ge", "capacity": "6", "vehicle_types": ""}}, {"type": "Feature", "geometry": {"type": "Point", "coordinates": [6.1352973, 46.210236]}, "properties": {"name": "Rue du Jura", "provider": "donkey_ge", "capacity": "4", "vehicle_types": ""}}, {"type": "Feature", "geometry": {"type": "Point", "coordinates": [6.1384997, 46.22746]}, "properties": {"name": "Palais des Nations - Portail Pregny", "provider": "donkey_ge", "capacity": "8", "vehicle_types": ""}}, {"type": "Feature", "geometry": {"type": "Point", "coordinates": [6.13688, 46.19601]}, "properties": {"name": "\u00c9cole de M\u00e9decine 20", "provider": "donkey_ge", "capacity": "10", "vehicle_types": ""}}, {"type": "Feature", "geometry": {"type": "Point", "coordinates": [6.1398215, 46.21526]}, "properties": {"name": "L\u00e9onard-Baulacre 20", "provider": "donkey_ge", "capacity": "4", "vehicle_types": ""}}, {"type": "Feature", "geometry": {"type": "Point", "coordinates": [6.1309037, 46.200214]}, "properties": {"name": "Casa Tiki", "provider": "donkey_ge", "capacity": "4", "vehicle_types": ""}}, {"type": "Feature", "geometry": {"type": "Point", "coordinates": [6.1461306, 46.187927]}, "properties": {"name": "Aubepine", "provider": "donkey_ge", "capacity": "5", "vehicle_types": ""}}, {"type": "Feature", "geometry": {"type": "Point", "coordinates": [6.0559874, 46.226803]}, "properties": {"name": "HP", "provider": "donkey_ge", "capacity": "10", "vehicle_types": ""}}, {"type": "Feature", "geometry": {"type": "Point", "coordinates": [6.1563644, 46.20231]}, "properties": {"name": "Place des Eaux-Vives", "provider": "donkey_ge", "capacity": "8", "vehicle_types": ""}}, {"type": "Feature", "geometry": {"type": "Point", "coordinates": [6.160149, 46.190647]}, "properties": {"name": "Av. Peschier 34", "provider": "donkey_ge", "capacity": "3", "vehicle_types": ""}}, {"type": "Feature", "geometry": {"type": "Point", "coordinates": [6.143431, 46.184387]}, "properties": {"name": "Horlogers", "provider": "donkey_ge", "capacity": "3", "vehicle_types": ""}}, {"type": "Feature", "geometry": {"type": "Point", "coordinates": [6.142298, 46.192535]}, "properties": {"name": "Dancet 22", "provider": "donkey_ge", "capacity": "5", "vehicle_types": ""}}, {"type": "Feature", "geometry": {"type": "Point", "coordinates": [6.1174893, 46.221832]}, "properties": {"name": "Joli-Mont", "provider": "donkey_ge", "capacity": "3", "vehicle_types": ""}}, {"type": "Feature", "geometry": {"type": "Point", "coordinates": [6.1418347, 46.19452]}, "properties": {"name": "Dancet 1", "provider": "donkey_ge", "capacity": "8", "vehicle_types": ""}}, {"type": "Feature", "geometry": {"type": "Point", "coordinates": [6.151139, 46.213867]}, "properties": {"name": "Jean-Jaquet", "provider": "donkey_ge", "capacity": "10", "vehicle_types": ""}}, {"type": "Feature", "geometry": {"type": "Point", "coordinates": [6.126929, 46.21878]}, "properties": {"name": "Trembley", "provider": "donkey_ge", "capacity": "3", "vehicle_types": ""}}, {"type": "Feature", "geometry": {"type": "Point", "coordinates": [6.1420417, 46.193665]}, "properties": {"name": "Dancet", "provider": "donkey_ge", "capacity": "6", "vehicle_types": ""}}, {"type": "Feature", "geometry": {"type": "Point", "coordinates": [6.137587, 46.196533]}, "properties": {"name": "Ecole de M\u00e9decine 16", "provider": "donkey_ge", "capacity": "8", "vehicle_types": ""}}, {"type": "Feature", "geometry": {"type": "Point", "coordinates": [6.1131797, 46.174397]}, "properties": {"name": "Stade des Fraisiers", "provider": "donkey_ge", "capacity": "3", "vehicle_types": ""}}, {"type": "Feature", "geometry": {"type": "Point", "coordinates": [6.1466603, 46.21605]}, "properties": {"name": "Rue Ferrier", "provider": "donkey_ge", "capacity": "2", "vehicle_types": ""}}, {"type": "Feature", "geometry": {"type": "Point", "coordinates": [6.142794, 46.18133]}, "properties": {"name": "Th\u00e9\u00e2tre Carouge", "provider": "donkey_ge", "capacity": "7", "vehicle_types": ""}}, {"type": "Feature", "geometry": {"type": "Point", "coordinates": [6.1594872, 46.200478]}, "properties": {"name": "Eaux-Vives 2000", "provider": "donkey_ge", "capacity": "5", "vehicle_types": ""}}, {"type": "Feature", "geometry": {"type": "Point", "coordinates": [6.14602, 46.19116]}, "properties": {"name": "Maternit\u00e9", "provider": "donkey_ge", "capacity": "8", "vehicle_types": ""}}, {"type": "Feature", "geometry": {"type": "Point", "coordinates": [6.118139, 46.187126]}, "properties": {"name": "Chemin du Gu\u00e9 63d", "provider": "donkey_ge", "capacity": "5", "vehicle_types": ""}}, {"type": "Feature", "geometry": {"type": "Point", "coordinates": [6.106477, 46.220673]}, "properties": {"name": "Oscar-Bider", "provider": "donkey_ge", "capacity": "5", "vehicle_types": ""}}, {"type": "Feature", "geometry": {"type": "Point", "coordinates": [6.132876, 46.20617]}, "properties": {"name": "D\u00e9lices 2", "provider": "donkey_ge", "capacity": "6", "vehicle_types": ""}}, {"type": "Feature", "geometry": {"type": "Point", "coordinates": [6.1531467, 46.196674]}, "properties": {"name": "Boulevard des Tranch\u00e9es 24", "provider": "donkey_ge", "capacity": "4", "vehicle_types": ""}}, {"type": "Feature", "geometry": {"type": "Point", "coordinates": [6.149483, 46.19885]}, "properties": {"name": "Franz-Liszt", "provider": "donkey_ge", "capacity": "3", "vehicle_types": ""}}, {"type": "Feature", "geometry": {"type": "Point", "coordinates": [6.1495786, 46.211525]}, "properties": {"name": "Place de la Navigation", "provider": "donkey_ge", "capacity": "10", "vehicle_types": ""}}, {"type": "Feature", "geometry": {"type": "Point", "coordinates": [6.1429667, 46.20073]}, "properties": {"name": "Fran\u00e7ois-Bartholoni", "provider": "donkey_ge", "capacity": "5", "vehicle_types": ""}}, {"type": "Feature", "geometry": {"type": "Point", "coordinates": [6.167008, 46.28035]}, "properties": {"name": "Anciens bains", "provider": "donkey_ge", "capacity": "5", "vehicle_types": ""}}, {"type": "Feature", "geometry": {"type": "Point", "coordinates": [6.105968, 46.219875]}, "properties": {"name": "Route de Meyrin 122", "provider": "donkey_ge", "capacity": "6", "vehicle_types": ""}}, {"type": "Feature", "geometry": {"type": "Point", "coordinates": [6.1498046, 46.210407]}, "properties": {"name": "Plantamour 22", "provider": "donkey_ge", "capacity": "5", "vehicle_types": ""}}, {"type": "Feature", "geometry": {"type": "Point", "coordinates": [6.1397314, 46.18801]}, "properties": {"name": "Rue des Allobroges 5", "provider": "donkey_ge", "capacity": "6", "vehicle_types": ""}}, {"type": "Feature", "geometry": {"type": "Point", "coordinates": [6.123648, 46.211243]}, "properties": {"name": "Soret - Soubeyran", "provider": "donkey_ge", "capacity": "6", "vehicle_types": ""}}, {"type": "Feature", "geometry": {"type": "Point", "coordinates": [6.150432, 46.18875]}, "properties": {"name": "H\u00f4pital Beau-S\u00e9jour", "provider": "donkey_ge", "capacity": "4", "vehicle_types": ""}}, {"type": "Feature", "geometry": {"type": "Point", "coordinates": [6.1566577, 46.18687]}, "properties": {"name": "Cr\u00eats de Champel 34", "provider": "donkey_ge", "capacity": "3", "vehicle_types": ""}}, {"type": "Feature", "geometry": {"type": "Point", "coordinates": [6.133879, 46.20412]}, "properties": {"name": "Seujet", "provider": "donkey_ge", "capacity": "5", "vehicle_types": ""}}, {"type": "Feature", "geometry": {"type": "Point", "coordinates": [6.0944915, 46.218586]}, "properties": {"name": "Chemin de Poussy", "provider": "donkey_ge", "capacity": "4", "vehicle_types": ""}}, {"type": "Feature", "geometry": {"type": "Point", "coordinates": [6.1331162, 46.208855]}, "properties": {"name": "Tronchin 2", "provider": "donkey_ge", "capacity": "6", "vehicle_types": ""}}, {"type": "Feature", "geometry": {"type": "Point", "coordinates": [6.1577806, 46.204002]}, "properties": {"name": "Rue du Lac 17", "provider": "donkey_ge", "capacity": "3", "vehicle_types": ""}}, {"type": "Feature", "geometry": {"type": "Point", "coordinates": [6.1452875, 46.19696]}, "properties": {"name": "Philosophes", "provider": "donkey_ge", "capacity": "8", "vehicle_types": ""}}, {"type": "Feature", "geometry": {"type": "Point", "coordinates": [6.156994, 46.181576]}, "properties": {"name": "P+R Bout-du-Monde", "provider": "donkey_ge", "capacity": "20", "vehicle_types": ""}}, {"type": "Feature", "geometry": {"type": "Point", "coordinates": [6.14099, 46.219048]}, "properties": {"name": "Rue de Montbrillant 2", "provider": "donkey_ge", "capacity": "3", "vehicle_types": ""}}, {"type": "Feature", "geometry": {"type": "Point", "coordinates": [6.148767, 46.17976]}, "properties": {"name": "CO Pinchat", "provider": "donkey_ge", "capacity": "8", "vehicle_types": ""}}, {"type": "Feature", "geometry": {"type": "Point", "coordinates": [6.1334753, 46.198303]}, "properties": {"name": "Bd. d'Yvoy ", "provider": "donkey_ge", "capacity": "9", "vehicle_types": ""}}, {"type": "Feature", "geometry": {"type": "Point", "coordinates": [6.1483383, 46.211777]}, "properties": {"name": "Rue L\u00e9on-Nicole", "provider": "donkey_ge", "capacity": "7", "vehicle_types": ""}}, {"type": "Feature", "geometry": {"type": "Point", "coordinates": [6.167953, 46.194096]}, "properties": {"name": "Le Corbusier ", "provider": "donkey_ge", "capacity": "8", "vehicle_types": ""}}, {"type": "Feature", "geometry": {"type": "Point", "coordinates": [6.1390057, 46.175343]}, "properties": {"name": "HEG Tambourine 2", "provider": "donkey_ge", "capacity": "5", "vehicle_types": ""}}, {"type": "Feature", "geometry": {"type": "Point", "coordinates": [6.0755496, 46.221832]}, "properties": {"name": "Gare Meyrin Sud", "provider": "donkey_ge", "capacity": "5", "vehicle_types": ""}}, {"type": "Feature", "geometry": {"type": "Point", "coordinates": [6.098982, 46.183525]}, "properties": {"name": "Route de Lo\u00ebx 3", "provider": "donkey_ge", "capacity": "2", "vehicle_types": ""}}, {"type": "Feature", "geometry": {"type": "Point", "coordinates": [6.149528, 46.204178]}, "properties": {"name": "Pont Mont Blanc S", "provider": "donkey_ge", "capacity": "10", "vehicle_types": ""}}, {"type": "Feature", "geometry": {"type": "Point", "coordinates": [6.1092067, 46.191467]}, "properties": {"name": "Bois-de-la-Chapelle 5", "provider": "donkey_ge", "capacity": "5", "vehicle_types": ""}}, {"type": "Feature", "geometry": {"type": "Point", "coordinates": [6.1486306, 46.196747]}, "properties": {"name": "Jean-S\u00e9nebier 20", "provider": "donkey_ge", "capacity": "4", "vehicle_types": ""}}, {"type": "Feature", "geometry": {"type": "Point", "coordinates": [6.079952, 46.228878]}, "properties": {"name": "Rue de la Prulay 11", "provider": "donkey_ge", "capacity": "4", "vehicle_types": ""}}, {"type": "Feature", "geometry": {"type": "Point", "coordinates": [6.1429753, 46.18837]}, "properties": {"name": "Rue de Carouge 99 ", "provider": "donkey_ge", "capacity": "8", "vehicle_types": ""}}, {"type": "Feature", "geometry": {"type": "Point", "coordinates": [6.1586075, 46.19]}, "properties": {"name": "Avenue Dumas 33", "provider": "donkey_ge", "capacity": "4", "vehicle_types": ""}}, {"type": "Feature", "geometry": {"type": "Point", "coordinates": [6.07149, 46.235428]}, "properties": {"name": "Piscine de Meyrin", "provider": "donkey_ge", "capacity": "7", "vehicle_types": ""}}, {"type": "Feature", "geometry": {"type": "Point", "coordinates": [6.0787754, 46.229836]}, "properties": {"name": "Rue de la Prulay 27", "provider": "donkey_ge", "capacity": "6", "vehicle_types": ""}}, {"type": "Feature", "geometry": {"type": "Point", "coordinates": [6.140197, 46.24311]}, "properties": {"name": "\u00c9cole Val\u00e9rie ", "provider": "donkey_ge", "capacity": "5", "vehicle_types": ""}}, {"type": "Feature", "geometry": {"type": "Point", "coordinates": [6.1412344, 46.20725]}, "properties": {"name": "Terreaux-du-Temple", "provider": "donkey_ge", "capacity": "5", "vehicle_types": ""}}, {"type": "Feature", "geometry": {"type": "Point", "coordinates": [6.123333, 46.20516]}, "properties": {"name": "Contrat-Social", "provider": "donkey_ge", "capacity": "3", "vehicle_types": ""}}, {"type": "Feature", "geometry": {"type": "Point", "coordinates": [6.1406655, 46.195232]}, "properties": {"name": "Uni Mail", "provider": "donkey_ge", "capacity": "15", "vehicle_types": ""}}, {"type": "Feature", "geometry": {"type": "Point", "coordinates": [6.142169, 46.186863]}, "properties": {"name": "Place de l'Octroi 8\u00a0", "provider": "donkey_ge", "capacity": "6", "vehicle_types": ""}}, {"type": "Feature", "geometry": {"type": "Point", "coordinates": [6.1558237, 46.201294]}, "properties": {"name": "Terrassi\u00e8res", "provider": "donkey_ge", "capacity": "6", "vehicle_types": ""}}, {"type": "Feature", "geometry": {"type": "Point", "coordinates": [6.124857, 46.208687]}, "properties": {"name": "Lyon 100", "provider": "donkey_ge", "capacity": "6", "vehicle_types": ""}}, {"type": "Feature", "geometry": {"type": "Point", "coordinates": [6.13802, 46.20641]}, "properties": {"name": "Saint-Jean 67", "provider": "donkey_ge", "capacity": "5", "vehicle_types": ""}}, {"type": "Feature", "geometry": {"type": "Point", "coordinates": [6.1576767, 46.202335]}, "properties": {"name": "Pictet de Rochemont 7", "provider": "donkey_ge", "capacity": "6", "vehicle_types": ""}}, {"type": "Feature", "geometry": {"type": "Point", "coordinates": [6.147237, 46.211647]}, "properties": {"name": "Temple des P\u00e2quis", "provider": "donkey_ge", "capacity": "5", "vehicle_types": ""}}, {"type": "Feature", "geometry": {"type": "Point", "coordinates": [6.1424537, 46.201363]}, "properties": {"name": "Le Lyrique", "provider": "donkey_ge", "capacity": "2", "vehicle_types": ""}}, {"type": "Feature", "geometry": {"type": "Point", "coordinates": [6.139216, 46.222565]}, "properties": {"name": "Place des Nations", "provider": "donkey_ge", "capacity": "10", "vehicle_types": ""}}, {"type": "Feature", "geometry": {"type": "Point", "coordinates": [6.1491876, 46.213184]}, "properties": {"name": "Rue de B\u00e2le 26", "provider": "donkey_ge", "capacity": "4", "vehicle_types": ""}}, {"type": "Feature", "geometry": {"type": "Point", "coordinates": [6.1716776, 46.21132]}, "properties": {"name": "Quai Gustave-Ador 2", "provider": "donkey_ge", "capacity": "5", "vehicle_types": ""}}, {"type": "Feature", "geometry": {"type": "Point", "coordinates": [6.161756, 46.204147]}, "properties": {"name": "Montchoisy 33", "provider": "donkey_ge", "capacity": "6", "vehicle_types": ""}}, {"type": "Feature", "geometry": {"type": "Point", "coordinates": [6.136458, 46.21357]}, "properties": {"name": "Grand-Pr\u00e9 21", "provider": "donkey_ge", "capacity": "8", "vehicle_types": ""}}, {"type": "Feature", "geometry": {"type": "Point", "coordinates": [6.147124, 46.197975]}, "properties": {"name": "Jean-S\u00e9nebier", "provider": "donkey_ge", "capacity": "3", "vehicle_types": ""}}, {"type": "Feature", "geometry": {"type": "Point", "coordinates": [6.10714, 46.191227]}, "properties": {"name": "Rue des Racettes", "provider": "donkey_ge", "capacity": "3", "vehicle_types": ""}}, {"type": "Feature", "geometry": {"type": "Point", "coordinates": [6.132362, 46.197823]}, "properties": {"name": "Sciences II", "provider": "donkey_ge", "capacity": "10", "vehicle_types": ""}}, {"type": "Feature", "geometry": {"type": "Point", "coordinates": [6.151425, 46.203182]}, "properties": {"name": "Rue du Prince", "provider": "donkey_ge", "capacity": "6", "vehicle_types": ""}}, {"type": "Feature", "geometry": {"type": "Point", "coordinates": [6.165844, 46.202785]}, "properties": {"name": "Frontenex 60", "provider": "donkey_ge", "capacity": "5", "vehicle_types": ""}}, {"type": "Feature", "geometry": {"type": "Point", "coordinates": [6.1424074, 46.208553]}, "properties": {"name": "Basilique Notre Dame", "provider": "donkey_ge", "capacity": "6", "vehicle_types": ""}}, {"type": "Feature", "geometry": {"type": "Point", "coordinates": [6.13723, 46.18989]}, "properties": {"name": "Rue du Grand Bureau 21", "provider": "donkey_ge", "capacity": "6", "vehicle_types": ""}}, {"type": "Feature", "geometry": {"type": "Point", "coordinates": [6.1738124, 46.212814]}, "properties": {"name": "P+R Gen\u00e8ve-Plage", "provider": "donkey_ge", "capacity": "20", "vehicle_types": ""}}, {"type": "Feature", "geometry": {"type": "Point", "coordinates": [6.147232, 46.184998]}, "properties": {"name": "Route de Veyrier", "provider": "donkey_ge", "capacity": "5", "vehicle_types": ""}}, {"type": "Feature", "geometry": {"type": "Point", "coordinates": [6.134812, 46.194164]}, "properties": {"name": "Piscine des Vernets", "provider": "donkey_ge", "capacity": "10", "vehicle_types": ""}}, {"type": "Feature", "geometry": {"type": "Point", "coordinates": [6.1094055, 46.212494]}, "properties": {"name": "Chemin de l'Etang ", "provider": "donkey_ge", "capacity": "5", "vehicle_types": ""}}, {"type": "Feature", "geometry": {"type": "Point", "coordinates": [6.1449175, 46.19309]}, "properties": {"name": "Pr\u00e9 J\u00e9r\u00f4me", "provider": "donkey_ge", "capacity": "8", "vehicle_types": ""}}, {"type": "Feature", "geometry": {"type": "Point", "coordinates": [6.0677466, 46.230213]}, "properties": {"name": "Caf\u00e9 Hortus", "provider": "donkey_ge", "capacity": "6", "vehicle_types": ""}}, {"type": "Feature", "geometry": {"type": "Point", "coordinates": [6.081357, 46.230732]}, "properties": {"name": "Livron", "provider": "donkey_ge", "capacity": "6", "vehicle_types": ""}}, {"type": "Feature", "geometry": {"type": "Point", "coordinates": [6.1309257, 46.20567]}, "properties": {"name": "Av. des Tilleuls", "provider": "donkey_ge", "capacity": "6", "vehicle_types": ""}}, {"type": "Feature", "geometry": {"type": "Point", "coordinates": [6.1467023, 46.192097]}, "properties": {"name": "Pharma 24", "provider": "donkey_ge", "capacity": "10", "vehicle_types": ""}}, {"type": "Feature", "geometry": {"type": "Point", "coordinates": [6.161376, 46.19347]}, "properties": {"name": "Route de Florissant 56", "provider": "donkey_ge", "capacity": "3", "vehicle_types": ""}}, {"type": "Feature", "geometry": {"type": "Point", "coordinates": [6.145709, 46.21479]}, "properties": {"name": "Rue du Prieur\u00e9 32", "provider": "donkey_ge", "capacity": "3", "vehicle_types": ""}}, {"type": "Feature", "geometry": {"type": "Point", "coordinates": [6.139661, 46.200756]}, "properties": {"name": "Rue des Savoises 3", "provider": "donkey_ge", "capacity": "4", "vehicle_types": ""}}, {"type": "Feature", "geometry": {"type": "Point", "coordinates": [6.1487594, 46.19486]}, "properties": {"name": "H\u00f4pital 3", "provider": "donkey_ge", "capacity": "7", "vehicle_types": ""}}, {"type": "Feature", "geometry": {"type": "Point", "coordinates": [6.141204, 46.208717]}, "properties": {"name": "HEAD", "provider": "donkey_ge", "capacity": "6", "vehicle_types": ""}}, {"type": "Feature", "geometry": {"type": "Point", "coordinates": [6.135989, 46.189575]}, "properties": {"name": "Rue des Noirettes 12", "provider": "donkey_ge", "capacity": "3", "vehicle_types": ""}}, {"type": "Feature", "geometry": {"type": "Point", "coordinates": [6.1631484, 46.28763]}, "properties": {"name": "Pont-C\u00e9ard", "provider": "donkey_ge", "capacity": "5", "vehicle_types": ""}}, {"type": "Feature", "geometry": {"type": "Point", "coordinates": [6.1225247, 46.191856]}, "properties": {"name": "Chemin des Erables", "provider": "donkey_ge", "capacity": "5", "vehicle_types": ""}}, {"type": "Feature", "geometry": {"type": "Point", "coordinates": [6.123687, 46.204517]}, "properties": {"name": "Contrat-Social 5", "provider": "donkey_ge", "capacity": "4", "vehicle_types": ""}}, {"type": "Feature", "geometry": {"type": "Point", "coordinates": [6.1187043, 46.190216]}, "properties": {"name": "Petit Lancy 2", "provider": "donkey_ge", "capacity": "8", "vehicle_types": ""}}, {"type": "Feature", "geometry": {"type": "Point", "coordinates": [6.166754, 46.20401]}, "properties": {"name": "William-Favre 38", "provider": "donkey_ge", "capacity": "5", "vehicle_types": ""}}, {"type": "Feature", "geometry": {"type": "Point", "coordinates": [6.102605, 46.20635]}, "properties": {"name": "Ch\u00e2teau-Bloch SIG", "provider": "donkey_ge", "capacity": "6", "vehicle_types": ""}}, {"type": "Feature", "geometry": {"type": "Point", "coordinates": [6.140532, 46.183926]}, "properties": {"name": "Carouge March\u00e9", "provider": "donkey_ge", "capacity": "5", "vehicle_types": ""}}, {"type": "Feature", "geometry": {"type": "Point", "coordinates": [6.15685, 46.19101]}, "properties": {"name": "Avenue Dumas 20", "provider": "donkey_ge", "capacity": "2", "vehicle_types": ""}}, {"type": "Feature", "geometry": {"type": "Point", "coordinates": [6.088712, 46.2179]}, "properties": {"name": "Route de Vernier 199", "provider": "donkey_ge", "capacity": "6", "vehicle_types": ""}}, {"type": "Feature", "geometry": {"type": "Point", "coordinates": [6.064532, 46.221542]}, "properties": {"name": "Gare Zimeysa", "provider": "donkey_ge", "capacity": "10", "vehicle_types": ""}}, {"type": "Feature", "geometry": {"type": "Point", "coordinates": [6.141819, 46.212673]}, "properties": {"name": "Rue des Gares 29", "provider": "donkey_ge", "capacity": "2", "vehicle_types": ""}}, {"type": "Feature", "geometry": {"type": "Point", "coordinates": [6.1259046, 46.23002]}, "properties": {"name": "Campus de la Sant\u00e9", "provider": "donkey_ge", "capacity": "8", "vehicle_types": ""}}, {"type": "Feature", "geometry": {"type": "Point", "coordinates": [6.151239, 46.19649]}, "properties": {"name": "Rue Firmin-Massot", "provider": "donkey_ge", "capacity": "4", "vehicle_types": ""}}, {"type": "Feature", "geometry": {"type": "Point", "coordinates": [6.127757, 46.2231]}, "properties": {"name": "Petit-Saconnex", "provider": "donkey_ge", "capacity": "3", "vehicle_types": ""}}, {"type": "Feature", "geometry": {"type": "Point", "coordinates": [6.0799866, 46.22716]}, "properties": {"name": "Jardin Alpin", "provider": "donkey_ge", "capacity": "3", "vehicle_types": ""}}, {"type": "Feature", "geometry": {"type": "Point", "coordinates": [6.1256, 46.214138]}, "properties": {"name": "Liotard", "provider": "donkey_ge", "capacity": "4", "vehicle_types": ""}}, {"type": "Feature", "geometry": {"type": "Point", "coordinates": [6.151217, 46.197174]}, "properties": {"name": "Rue Fran\u00e7ois D'Ivernois", "provider": "donkey_ge", "capacity": "3", "vehicle_types": ""}}, {"type": "Feature", "geometry": {"type": "Point", "coordinates": [6.1156516, 46.21443]}, "properties": {"name": "Coin-de-Terre", "provider": "donkey_ge", "capacity": "4", "vehicle_types": ""}}, {"type": "Feature", "geometry": {"type": "Point", "coordinates": [6.1652665, 46.20871]}, "properties": {"name": "Baby-Plage 2", "provider": "donkey_ge", "capacity": "9", "vehicle_types": ""}}, {"type": "Feature", "geometry": {"type": "Point", "coordinates": [6.139696, 46.20609]}, "properties": {"name": "Gavroche", "provider": "donkey_ge", "capacity": "3", "vehicle_types": ""}}, {"type": "Feature", "geometry": {"type": "Point", "coordinates": [6.1545396, 46.196014]}, "properties": {"name": "Jules-Crosnier 12", "provider": "donkey_ge", "capacity": "1", "vehicle_types": ""}}, {"type": "Feature", "geometry": {"type": "Point", "coordinates": [6.123807, 46.233963]}, "properties": {"name": "Place de Carantec", "provider": "donkey_ge", "capacity": "6", "vehicle_types": ""}}, {"type": "Feature", "geometry": {"type": "Point", "coordinates": [6.1577754, 46.195366]}, "properties": {"name": "Rue Crespin", "provider": "donkey_ge", "capacity": "1", "vehicle_types": ""}}, {"type": "Feature", "geometry": {"type": "Point", "coordinates": [6.141049, 46.200623]}, "properties": {"name": "Carosello", "provider": "donkey_ge", "capacity": "5", "vehicle_types": ""}}, {"type": "Feature", "geometry": {"type": "Point", "coordinates": [6.1467867, 46.20962]}, "properties": {"name": "Rue Thalberg 8", "provider": "donkey_ge", "capacity": "6", "vehicle_types": ""}}, {"type": "Feature", "geometry": {"type": "Point", "coordinates": [6.141676, 46.217617]}, "properties": {"name": "Richard-Wagner 6", "provider": "donkey_ge", "capacity": "3", "vehicle_types": ""}}, {"type": "Feature", "geometry": {"type": "Point", "coordinates": [6.1056027, 46.22484]}, "properties": {"name": "Chemin du Ruisseau ", "provider": "donkey_ge", "capacity": "6", "vehicle_types": ""}}, {"type": "Feature", "geometry": {"type": "Point", "coordinates": [6.1192274, 46.190144]}, "properties": {"name": "Petit Lancy", "provider": "donkey_ge", "capacity": "6", "vehicle_types": ""}}, {"type": "Feature", "geometry": {"type": "Point", "coordinates": [6.066556, 46.227455]}, "properties": {"name": "La Renfile", "provider": "donkey_ge", "capacity": "3", "vehicle_types": ""}}, {"type": "Feature", "geometry": {"type": "Point", "coordinates": [6.1496944, 46.230762]}, "properties": {"name": "Plage du Reposoir", "provider": "donkey_ge", "capacity": "10", "vehicle_types": ""}}, {"type": "Feature", "geometry": {"type": "Point", "coordinates": [6.0999255, 46.188667]}, "properties": {"name": "Place du 150e", "provider": "donkey_ge", "capacity": "3", "vehicle_types": ""}}, {"type": "Feature", "geometry": {"type": "Point", "coordinates": [6.151059, 46.21077]}, "properties": {"name": "Rue Barton", "provider": "donkey_ge", "capacity": "5", "vehicle_types": ""}}, {"type": "Feature", "geometry": {"type": "Point", "coordinates": [6.13733, 46.21962]}, "properties": {"name": "Ch. Louis-Dunant", "provider": "donkey_ge", "capacity": "5", "vehicle_types": ""}}, {"type": "Feature", "geometry": {"type": "Point", "coordinates": [6.1298585, 46.20659]}, "properties": {"name": "Daubin", "provider": "donkey_ge", "capacity": "8", "vehicle_types": ""}}, {"type": "Feature", "geometry": {"type": "Point", "coordinates": [6.1249356, 46.171215]}, "properties": {"name": " Tr\u00e8fle-Blanc", "provider": "donkey_ge", "capacity": "7", "vehicle_types": ""}}, {"type": "Feature", "geometry": {"type": "Point", "coordinates": [6.1121087, 46.16915]}, "properties": {"name": "V\u00e9lodrome, Chemin de Champ-Joly", "provider": "donkey_ge", "capacity": "5", "vehicle_types": ""}}, {"type": "Feature", "geometry": {"type": "Point", "coordinates": [6.1642394, 46.192184]}, "properties": {"name": "Route de Florissant 86", "provider": "donkey_ge", "capacity": "6", "vehicle_types": ""}}, {"type": "Feature", "geometry": {"type": "Point", "coordinates": [6.110451, 46.19163]}, "properties": {"name": "Morgines", "provider": "donkey_ge", "capacity": "2", "vehicle_types": ""}}, {"type": "Feature", "geometry": {"type": "Point", "coordinates": [6.149015, 46.22239]}, "properties": {"name": "Rue de Lausanne 137", "provider": "donkey_ge", "capacity": "2", "vehicle_types": ""}}, {"type": "Feature", "geometry": {"type": "Point", "coordinates": [6.1430817, 46.19377]}, "properties": {"name": "Pictet-de-Bock", "provider": "donkey_ge", "capacity": "4", "vehicle_types": ""}}, {"type": "Feature", "geometry": {"type": "Point", "coordinates": [6.1643653, 46.205494]}, "properties": {"name": "William-Favre 19", "provider": "donkey_ge", "capacity": "6", "vehicle_types": ""}}, {"type": "Feature", "geometry": {"type": "Point", "coordinates": [6.152047, 46.19568]}, "properties": {"name": "Malombr\u00e9 12", "provider": "donkey_ge", "capacity": "2", "vehicle_types": ""}}, {"type": "Feature", "geometry": {"type": "Point", "coordinates": [6.1287036, 46.209984]}, "properties": {"name": "Lamartine 14", "provider": "donkey_ge", "capacity": "4", "vehicle_types": ""}}, {"type": "Feature", "geometry": {"type": "Point", "coordinates": [6.055358, 46.23074]}, "properties": {"name": "CERN _ Event", "provider": "donkey_ge", "capacity": "5", "vehicle_types": ""}}, {"type": "Feature", "geometry": {"type": "Point", "coordinates": [6.105542, 46.192944]}, "properties": {"name": "Echo", "provider": "donkey_ge", "capacity": "2", "vehicle_types": ""}}, {"type": "Feature", "geometry": {"type": "Point", "coordinates": [6.126333, 46.20854]}, "properties": {"name": "Charmilles", "provider": "donkey_ge", "capacity": "6", "vehicle_types": ""}}, {"type": "Feature", "geometry": {"type": "Point", "coordinates": [6.134455, 46.182835]}, "properties": {"name": "Vibert", "provider": "donkey_ge", "capacity": "6", "vehicle_types": ""}}, {"type": "Feature", "geometry": {"type": "Point", "coordinates": [6.118617, 46.16816]}, "properties": {"name": "Quartier du Pr\u00e9 du Champ", "provider": "donkey_ge", "capacity": "5", "vehicle_types": ""}}, {"type": "Feature", "geometry": {"type": "Point", "coordinates": [6.1258273, 46.212105]}, "properties": {"name": "Ernest-Pictet 17", "provider": "donkey_ge", "capacity": "5", "vehicle_types": ""}}, {"type": "Feature", "geometry": {"type": "Point", "coordinates": [6.162251, 46.204628]}, "properties": {"name": "Rue de l'Avenir 34", "provider": "donkey_ge", "capacity": "2", "vehicle_types": ""}}, {"type": "Feature", "geometry": {"type": "Point", "coordinates": [6.1688967, 46.210327]}, "properties": {"name": "Quai Gustave-Ador 100 ", "provider": "donkey_ge", "capacity": "5", "vehicle_types": ""}}, {"type": "Feature", "geometry": {"type": "Point", "coordinates": [6.1195645, 46.188843]}, "properties": {"name": "Parc C\u00e9r\u00e9sole", "provider": "donkey_ge", "capacity": "6", "vehicle_types": ""}}, {"type": "Feature", "geometry": {"type": "Point", "coordinates": [6.077812, 46.230614]}, "properties": {"name": "Rue de la Prulay 50", "provider": "donkey_ge", "capacity": "5", "vehicle_types": ""}}, {"type": "Feature", "geometry": {"type": "Point", "coordinates": [6.1092796, 46.19003]}, "properties": {"name": "Chemin de la Caroline 14", "provider": "donkey_ge", "capacity": "3", "vehicle_types": ""}}, {"type": "Feature", "geometry": {"type": "Point", "coordinates": [6.113373, 46.191986]}, "properties": {"name": "Salle Omnisports", "provider": "donkey_ge", "capacity": "6", "vehicle_types": ""}}, {"type": "Feature", "geometry": {"type": "Point", "coordinates": [6.0991645, 46.224106]}, "properties": {"name": "Pr\u00e9 Bois", "provider": "donkey_ge", "capacity": "8", "vehicle_types": ""}}, {"type": "Feature", "geometry": {"type": "Point", "coordinates": [6.1208444, 46.165527]}, "properties": {"name": "Chevaliers-de-Malte 30", "provider": "donkey_ge", "capacity": "2", "vehicle_types": ""}}, {"type": "Feature", "geometry": {"type": "Point", "coordinates": [6.141601, 46.205486]}, "properties": {"name": "Turrettini 1", "provider": "donkey_ge", "capacity": "5", "vehicle_types": ""}}, {"type": "Feature", "geometry": {"type": "Point", "coordinates": [6.1137614, 46.19159]}, "properties": {"name": "CFPT", "provider": "donkey_ge", "capacity": "5", "vehicle_types": ""}}, {"type": "Feature", "geometry": {"type": "Point", "coordinates": [6.1117263, 46.176613]}, "properties": {"name": "Stade des Verjus", "provider": "donkey_ge", "capacity": "3", "vehicle_types": ""}}, {"type": "Feature", "geometry": {"type": "Point", "coordinates": [6.098724, 46.17992]}, "properties": {"name": "Blanchette", "provider": "donkey_ge", "capacity": "3", "vehicle_types": ""}}, {"type": "Feature", "geometry": {"type": "Point", "coordinates": [6.110963, 46.192608]}, "properties": {"name": "Origami", "provider": "donkey_ge", "capacity": "5", "vehicle_types": ""}}, {"type": "Feature", "geometry": {"type": "Point", "coordinates": [6.164633, 46.201283]}, "properties": {"name": "Violier", "provider": "donkey_ge", "capacity": "5", "vehicle_types": ""}}, {"type": "Feature", "geometry": {"type": "Point", "coordinates": [6.109602, 46.219948]}, "properties": {"name": "Fran\u00e7ois-Durafour", "provider": "donkey_ge", "capacity": "4", "vehicle_types": ""}}, {"type": "Feature", "geometry": {"type": "Point", "coordinates": [6.1477966, 46.22035]}, "properties": {"name": "P+R de la Paix", "provider": "donkey_ge", "capacity": "5", "vehicle_types": ""}}, {"type": "Feature", "geometry": {"type": "Point", "coordinates": [6.130851, 46.21581]}, "properties": {"name": "L'Entre-Deux", "provider": "donkey_ge", "capacity": "5", "vehicle_types": ""}}, {"type": "Feature", "geometry": {"type": "Point", "coordinates": [6.1138787, 46.194042]}, "properties": {"name": "Stade de Florimont", "provider": "donkey_ge", "capacity": "3", "vehicle_types": ""}}, {"type": "Feature", "geometry": {"type": "Point", "coordinates": [6.1540847, 46.195084]}, "properties": {"name": "Rue de l'Ath\u00e9n\u00e9e ", "provider": "donkey_ge", "capacity": "3", "vehicle_types": ""}}, {"type": "Feature", "geometry": {"type": "Point", "coordinates": [6.1020722, 46.181652]}, "properties": {"name": "Mairie d'Onex", "provider": "donkey_ge", "capacity": "2", "vehicle_types": ""}}, {"type": "Feature", "geometry": {"type": "Point", "coordinates": [6.1293015, 46.20843]}, "properties": {"name": "Rue de Lyon 65", "provider": "donkey_ge", "capacity": "4", "vehicle_types": ""}}, {"type": "Feature", "geometry": {"type": "Point", "coordinates": [6.140563, 46.220867]}, "properties": {"name": "UNHCR", "provider": "donkey_ge", "capacity": "6", "vehicle_types": ""}}, {"type": "Feature", "geometry": {"type": "Point", "coordinates": [6.147745, 46.211407]}, "properties": {"name": "Rue de Zurich 17", "provider": "donkey_ge", "capacity": "5", "vehicle_types": ""}}, {"type": "Feature", "geometry": {"type": "Point", "coordinates": [6.1209164, 46.18329]}, "properties": {"name": "Dowellec", "provider": "donkey_ge", "capacity": "4", "vehicle_types": ""}}, {"type": "Feature", "geometry": {"type": "Point", "coordinates": [6.136502, 46.18806]}, "properties": {"name": "Rue Jacques Grosselin 4", "provider": "donkey_ge", "capacity": "6", "vehicle_types": ""}}, {"type": "Feature", "geometry": {"type": "Point", "coordinates": [6.1360497, 46.208122]}, "properties": {"name": "Encyclop\u00e9die 1", "provider": "donkey_ge", "capacity": "6", "vehicle_types": ""}}, {"type": "Feature", "geometry": {"type": "Point", "coordinates": [6.147015, 46.242733]}, "properties": {"name": "Gare Chamb\u00e9sy", "provider": "donkey_ge", "capacity": "5", "vehicle_types": ""}}, {"type": "Feature", "geometry": {"type": "Point", "coordinates": [6.1205306, 46.210056]}, "properties": {"name": "Franchises 1", "provider": "donkey_ge", "capacity": "4", "vehicle_types": ""}}, {"type": "Feature", "geometry": {"type": "Point", "coordinates": [6.1608214, 46.19772]}, "properties": {"name": "Malagnou", "provider": "donkey_ge", "capacity": "6", "vehicle_types": ""}}, {"type": "Feature", "geometry": {"type": "Point", "coordinates": [6.1217346, 46.196766]}, "properties": {"name": "Chemin de la b\u00e2tie 3", "provider": "donkey_ge", "capacity": "5", "vehicle_types": ""}}, {"type": "Feature", "geometry": {"type": "Point", "coordinates": [6.1182857, 46.175533]}, "properties": {"name": "Chemin des Semailles 44", "provider": "donkey_ge", "capacity": "8", "vehicle_types": ""}}, {"type": "Feature", "geometry": {"type": "Point", "coordinates": [6.1316185, 46.225147]}, "properties": {"name": "Pharmacie de Bud\u00e9", "provider": "donkey_ge", "capacity": "6", "vehicle_types": ""}}, {"type": "Feature", "geometry": {"type": "Point", "coordinates": [6.1418085, 46.191334]}, "properties": {"name": "Battoirs 9", "provider": "donkey_ge", "capacity": "4", "vehicle_types": ""}}, {"type": "Feature", "geometry": {"type": "Point", "coordinates": [6.081408, 46.218304]}, "properties": {"name": "Draft Tennis Vernier", "provider": "donkey_ge", "capacity": "5", "vehicle_types": ""}}, {"type": "Feature", "geometry": {"type": "Point", "coordinates": [6.058032, 46.22707]}, "properties": {"name": "The Hive (P\u00f4le de Mobilit\u00e9)", "provider": "donkey_ge", "capacity": "4", "vehicle_types": ""}}, {"type": "Feature", "geometry": {"type": "Point", "coordinates": [6.14606, 46.208767]}, "properties": {"name": "P\u00e9colat 8", "provider": "donkey_ge", "capacity": "4", "vehicle_types": ""}}, {"type": "Feature", "geometry": {"type": "Point", "coordinates": [6.1335254, 46.201122]}, "properties": {"name": "Michel-Simon", "provider": "donkey_ge", "capacity": "6", "vehicle_types": ""}}, {"type": "Feature", "geometry": {"type": "Point", "coordinates": [6.111075, 46.169987]}, "properties": {"name": "V\u00e9lodrome 80", "provider": "donkey_ge", "capacity": "4", "vehicle_types": ""}}, {"type": "Feature", "geometry": {"type": "Point", "coordinates": [6.1414695, 46.200203]}, "properties": {"name": "Bartholoni 2", "provider": "donkey_ge", "capacity": "6", "vehicle_types": ""}}, {"type": "Feature", "geometry": {"type": "Point", "coordinates": [6.1243443, 46.205402]}, "properties": {"name": "Gallatin", "provider": "donkey_ge", "capacity": "4", "vehicle_types": ""}}, {"type": "Feature", "geometry": {"type": "Point", "coordinates": [6.139122, 46.210896]}, "properties": {"name": "Rue de la Sib\u00e9rie 1", "provider": "donkey_ge", "capacity": "2", "vehicle_types": ""}}, {"type": "Feature", "geometry": {"type": "Point", "coordinates": [6.1040497, 46.179726]}, "properties": {"name": "Belle-Cour", "provider": "donkey_ge", "capacity": "3", "vehicle_types": ""}}, {"type": "Feature", "geometry": {"type": "Point", "coordinates": [6.125994, 46.209488]}, "properties": {"name": "Bourgogne", "provider": "donkey_ge", "capacity": "5", "vehicle_types": ""}}, {"type": "Feature", "geometry": {"type": "Point", "coordinates": [6.131185, 46.207302]}, "properties": {"name": "D\u00f4le", "provider": "donkey_ge", "capacity": "5", "vehicle_types": ""}}, {"type": "Feature", "geometry": {"type": "Point", "coordinates": [6.1470947, 46.210526]}, "properties": {"name": "L'Aigle Noir", "provider": "donkey_ge", "capacity": "5", "vehicle_types": ""}}, {"type": "Feature", "geometry": {"type": "Point", "coordinates": [6.17287, 46.20112]}, "properties": {"name": "Chemin des Tulipiers", "provider": "donkey_ge", "capacity": "2", "vehicle_types": ""}}, {"type": "Feature", "geometry": {"type": "Point", "coordinates": [6.0770025, 46.23127]}, "properties": {"name": "Rue de la Prulay 68", "provider": "donkey_ge", "capacity": "5", "vehicle_types": ""}}, {"type": "Feature", "geometry": {"type": "Point", "coordinates": [6.1330256, 46.215073]}, "properties": {"name": "Rue du Grand-Pr\u00e9 49", "provider": "donkey_ge", "capacity": "5", "vehicle_types": ""}}, {"type": "Feature", "geometry": {"type": "Point", "coordinates": [6.0752783, 46.229557]}, "properties": {"name": "Ferme de la Golette", "provider": "donkey_ge", "capacity": "5", "vehicle_types": ""}}, {"type": "Feature", "geometry": {"type": "Point", "coordinates": [6.1327143, 46.201405]}, "properties": {"name": "Rue des Jardins", "provider": "donkey_ge", "capacity": "5", "vehicle_types": ""}}, {"type": "Feature", "geometry": {"type": "Point", "coordinates": [6.1032267, 46.189632]}, "properties": {"name": "Bois-de-la-Chapelle 57", "provider": "donkey_ge", "capacity": "3", "vehicle_types": ""}}, {"type": "Feature", "geometry": {"type": "Point", "coordinates": [6.1591625, 46.205173]}, "properties": {"name": "Rue Du-Roveray 9", "provider": "donkey_ge", "capacity": "2", "vehicle_types": ""}}, {"type": "Feature", "geometry": {"type": "Point", "coordinates": [6.147233, 46.210083]}, "properties": {"name": "Rue Sismondi", "provider": "donkey_ge", "capacity": "3", "vehicle_types": ""}}, {"type": "Feature", "geometry": {"type": "Point", "coordinates": [6.1487103, 46.1901]}, "properties": {"name": "HUG", "provider": "donkey_ge", "capacity": "8", "vehicle_types": ""}}, {"type": "Feature", "geometry": {"type": "Point", "coordinates": [6.11176, 46.215267]}, "properties": {"name": "Jardin Familiaux", "provider": "donkey_ge", "capacity": "3", "vehicle_types": ""}}, {"type": "Feature", "geometry": {"type": "Point", "coordinates": [6.118462, 46.179417]}, "properties": {"name": "Av. du Cur\u00e9-Baud", "provider": "donkey_ge", "capacity": "3", "vehicle_types": ""}}, {"type": "Feature", "geometry": {"type": "Point", "coordinates": [6.0714965, 46.22614]}, "properties": {"name": "Chemin Salomon Penay", "provider": "donkey_ge", "capacity": "2", "vehicle_types": ""}}, {"type": "Feature", "geometry": {"type": "Point", "coordinates": [6.139638, 46.210537]}, "properties": {"name": "Rue de la Sib\u00e9rie 2", "provider": "donkey_ge", "capacity": "2", "vehicle_types": ""}}, {"type": "Feature", "geometry": {"type": "Point", "coordinates": [6.139397, 46.208237]}, "properties": {"name": "Malatrex", "provider": "donkey_ge", "capacity": "4", "vehicle_types": ""}}, {"type": "Feature", "geometry": {"type": "Point", "coordinates": [6.1357746, 46.1902]}, "properties": {"name": "Epinettes 12", "provider": "donkey_ge", "capacity": "3", "vehicle_types": ""}}, {"type": "Feature", "geometry": {"type": "Point", "coordinates": [6.1475463, 46.214767]}, "properties": {"name": "R\u00e9sidence Universitaire", "provider": "donkey_ge", "capacity": "7", "vehicle_types": ""}}, {"type": "Feature", "geometry": {"type": "Point", "coordinates": [6.154179, 46.202988]}, "properties": {"name": "Pierre-Fatio", "provider": "donkey_ge", "capacity": "3", "vehicle_types": ""}}, {"type": "Feature", "geometry": {"type": "Point", "coordinates": [6.1630545, 46.202667]}, "properties": {"name": "Rue des Vollandes 69", "provider": "donkey_ge", "capacity": "1", "vehicle_types": ""}}, {"type": "Feature", "geometry": {"type": "Point", "coordinates": [6.1374097, 46.210274]}, "properties": {"name": "Servette 18", "provider": "donkey_ge", "capacity": "8", "vehicle_types": ""}}, {"type": "Feature", "geometry": {"type": "Point", "coordinates": [6.1240063, 46.18504]}, "properties": {"name": "Chemin des M\u00e9rinos 10", "provider": "donkey_ge", "capacity": "3", "vehicle_types": ""}}, {"type": "Feature", "geometry": {"type": "Point", "coordinates": [6.1646094, 46.19517]}, "properties": {"name": "P\u00e9dro-Meylan 7", "provider": "donkey_ge", "capacity": "2", "vehicle_types": ""}}, {"type": "Feature", "geometry": {"type": "Point", "coordinates": [6.151851, 46.18421]}, "properties": {"name": "Carrefour du mouvement", "provider": "donkey_ge", "capacity": "3", "vehicle_types": ""}}, {"type": "Feature", "geometry": {"type": "Point", "coordinates": [6.1115465, 46.207363]}, "properties": {"name": "Emilie-Morsier", "provider": "donkey_ge", "capacity": "3", "vehicle_types": ""}}, {"type": "Feature", "geometry": {"type": "Point", "coordinates": [6.0950723, 46.2017]}, "properties": {"name": "Av. du Lignon 25", "provider": "donkey_ge", "capacity": "3", "vehicle_types": ""}}, {"type": "Feature", "geometry": {"type": "Point", "coordinates": [6.1438303, 46.201763]}, "properties": {"name": "Place de Neuve", "provider": "donkey_ge", "capacity": "6", "vehicle_types": ""}}, {"type": "Feature", "geometry": {"type": "Point", "coordinates": [6.1355834, 46.1845]}, "properties": {"name": "Rue Jacques Grosselin 15", "provider": "donkey_ge", "capacity": "6", "vehicle_types": ""}}, {"type": "Feature", "geometry": {"type": "Point", "coordinates": [6.1028347, 46.18629]}, "properties": {"name": "Piscine d'Onex", "provider": "donkey_ge", "capacity": "3", "vehicle_types": ""}}, {"type": "Feature", "geometry": {"type": "Point", "coordinates": [6.10351, 46.21996]}, "properties": {"name": "Ave de l'Etang ", "provider": "donkey_ge", "capacity": "5", "vehicle_types": ""}}, {"type": "Feature", "geometry": {"type": "Point", "coordinates": [6.1661353, 46.27958]}, "properties": {"name": "Gare de Versoix", "provider": "donkey_ge", "capacity": "10", "vehicle_types": ""}}, {"type": "Feature", "geometry": {"type": "Point", "coordinates": [6.157216, 46.19208]}, "properties": {"name": "Av. Peschier 18", "provider": "donkey_ge", "capacity": "1", "vehicle_types": ""}}, {"type": "Feature", "geometry": {"type": "Point", "coordinates": [6.1439557, 46.187347]}, "properties": {"name": "Quai Capo d'Istria", "provider": "donkey_ge", "capacity": "6", "vehicle_types": ""}}, {"type": "Feature", "geometry": {"type": "Point", "coordinates": [6.1306133, 46.21259]}, "properties": {"name": "Henri-Veyrassat 9", "provider": "donkey_ge", "capacity": "5", "vehicle_types": ""}}, {"type": "Feature", "geometry": {"type": "Point", "coordinates": [6.159456, 46.187016]}, "properties": {"name": "Cit\u00e9 et Centre Sportif Universitaire ", "provider": "donkey_ge", "capacity": "12", "vehicle_types": ""}}, {"type": "Feature", "geometry": {"type": "Point", "coordinates": [6.1392145, 46.210632]}, "properties": {"name": "CBD Shop", "provider": "donkey_ge", "capacity": "2", "vehicle_types": ""}}, {"type": "Feature", "geometry": {"type": "Point", "coordinates": [6.0567155, 46.23289]}, "properties": {"name": "Cern", "provider": "donkey_ge", "capacity": "10", "vehicle_types": ""}}, {"type": "Feature", "geometry": {"type": "Point", "coordinates": [6.11887, 46.216446]}, "properties": {"name": "Bouchet", "provider": "donkey_ge", "capacity": "8", "vehicle_types": ""}}, {"type": "Feature", "geometry": {"type": "Point", "coordinates": [6.1248593, 46.213524]}, "properties": {"name": "Figuier", "provider": "donkey_ge", "capacity": "3", "vehicle_types": ""}}, {"type": "Feature", "geometry": {"type": "Point", "coordinates": [6.117552, 46.19607]}, "properties": {"name": "Av. du Plateau", "provider": "donkey_ge", "capacity": "6", "vehicle_types": ""}}, {"type": "Feature", "geometry": {"type": "Point", "coordinates": [6.138425, 46.188084]}, "properties": {"name": "Rue Caroline 51", "provider": "donkey_ge", "capacity": "3", "vehicle_types": ""}}, {"type": "Feature", "geometry": {"type": "Point", "coordinates": [6.1347766, 46.21357]}, "properties": {"name": "Rue Cramer", "provider": "donkey_ge", "capacity": "5", "vehicle_types": ""}}, {"type": "Feature", "geometry": {"type": "Point", "coordinates": [6.144185, 46.18898]}, "properties": {"name": "Rue Blanche 9", "provider": "donkey_ge", "capacity": "3", "vehicle_types": ""}}, {"type": "Feature", "geometry": {"type": "Point", "coordinates": [6.147188, 46.21583]}, "properties": {"name": "Rue de Lausanne 67", "provider": "donkey_ge", "capacity": "3", "vehicle_types": ""}}, {"type": "Feature", "geometry": {"type": "Point", "coordinates": [6.1562347, 46.198853]}, "properties": {"name": "Ferdinand-Hodler 15", "provider": "donkey_ge", "capacity": "2", "vehicle_types": ""}}, {"type": "Feature", "geometry": {"type": "Point", "coordinates": [6.1374893, 46.2113]}, "properties": {"name": "Louis-Favre 19", "provider": "donkey_ge", "capacity": "6", "vehicle_types": ""}}, {"type": "Feature", "geometry": {"type": "Point", "coordinates": [6.161793, 46.206573]}, "properties": {"name": "Merle-d'Aubign\u00e9 5", "provider": "donkey_ge", "capacity": "2", "vehicle_types": ""}}, {"type": "Feature", "geometry": {"type": "Point", "coordinates": [6.1398463, 46.201187]}, "properties": {"name": "Place du Cirque", "provider": "donkey_ge", "capacity": "8", "vehicle_types": ""}}, {"type": "Feature", "geometry": {"type": "Point", "coordinates": [6.0796876, 46.228466]}, "properties": {"name": "Rue Gilbert", "provider": "donkey_ge", "capacity": "5", "vehicle_types": ""}}, {"type": "Feature", "geometry": {"type": "Point", "coordinates": [6.1385627, 46.211243]}, "properties": {"name": "Rue des Grottes 17", "provider": "donkey_ge", "capacity": "2", "vehicle_types": ""}}, {"type": "Feature", "geometry": {"type": "Point", "coordinates": [6.141125, 46.206127]}, "properties": {"name": "Rue du Temple", "provider": "donkey_ge", "capacity": "6", "vehicle_types": ""}}, {"type": "Feature", "geometry": {"type": "Point", "coordinates": [6.126916, 46.213455]}, "properties": {"name": "Rue Liotard 61", "provider": "donkey_ge", "capacity": "4", "vehicle_types": ""}}, {"type": "Feature", "geometry": {"type": "Point", "coordinates": [6.1463985, 46.208405]}, "properties": {"name": "Gare Routi\u00e8re", "provider": "donkey_ge", "capacity": "8", "vehicle_types": ""}}, {"type": "Feature", "geometry": {"type": "Point", "coordinates": [6.147348, 46.20237]}, "properties": {"name": "Rue de la Madeleine", "provider": "donkey_ge", "capacity": "6", "vehicle_types": ""}}, {"type": "Feature", "geometry": {"type": "Point", "coordinates": [6.1140876, 46.220352]}, "properties": {"name": "Balexert", "provider": "donkey_ge", "capacity": "6", "vehicle_types": ""}}, {"type": "Feature", "geometry": {"type": "Point", "coordinates": [6.1409774, 46.220043]}, "properties": {"name": "Rue de Montbrillant", "provider": "donkey_ge", "capacity": "6", "vehicle_types": ""}}, {"type": "Feature", "geometry": {"type": "Point", "coordinates": [6.126831, 46.222694]}, "properties": {"name": "Chemin des Cr\u00eats ", "provider": "donkey_ge", "capacity": "6", "vehicle_types": ""}}, {"type": "Feature", "geometry": {"type": "Point", "coordinates": [6.1340985, 46.212852]}, "properties": {"name": "Schaub et Carteret", "provider": "donkey_ge", "capacity": "4", "vehicle_types": ""}}, {"type": "Feature", "geometry": {"type": "Point", "coordinates": [6.128664, 46.204758]}, "properties": {"name": "Saint-Jean 30", "provider": "donkey_ge", "capacity": "6", "vehicle_types": ""}}, {"type": "Feature", "geometry": {"type": "Point", "coordinates": [6.1736274, 46.199856]}, "properties": {"name": "Route de Ch\u00eane 61", "provider": "donkey_ge", "capacity": "5", "vehicle_types": ""}}, {"type": "Feature", "geometry": {"type": "Point", "coordinates": [6.1368785, 46.20804]}, "properties": {"name": "Voltaire 20", "provider": "donkey_ge", "capacity": "4", "vehicle_types": ""}}, {"type": "Feature", "geometry": {"type": "Point", "coordinates": [6.1541877, 46.192314]}, "properties": {"name": "Gare de Champel - Dumas", "provider": "donkey_ge", "capacity": "12", "vehicle_types": ""}}, {"type": "Feature", "geometry": {"type": "Point", "coordinates": [6.148367, 46.211224]}, "properties": {"name": "Rue de Zurich 5", "provider": "donkey_ge", "capacity": "5", "vehicle_types": ""}}, {"type": "Feature", "geometry": {"type": "Point", "coordinates": [6.1530576, 46.19712]}, "properties": {"name": "Mont-de-Sion", "provider": "donkey_ge", "capacity": "6", "vehicle_types": ""}}, {"type": "Feature", "geometry": {"type": "Point", "coordinates": [6.133472, 46.215168]}, "properties": {"name": "Grand-Pr\u00e9 54", "provider": "donkey_ge", "capacity": "5", "vehicle_types": ""}}, {"type": "Feature", "geometry": {"type": "Point", "coordinates": [6.144239, 46.196617]}, "properties": {"name": "Leschot 11", "provider": "donkey_ge", "capacity": "2", "vehicle_types": ""}}, {"type": "Feature", "geometry": {"type": "Point", "coordinates": [6.1234546, 46.172997]}, "properties": {"name": "Lancy-Pontets (P\u00f4le de Mobilit\u00e9)", "provider": "donkey_ge", "capacity": "8", "vehicle_types": ""}}, {"type": "Feature", "geometry": {"type": "Point", "coordinates": [6.1253657, 46.212296]}, "properties": {"name": "Ernest-Pictet 18", "provider": "donkey_ge", "capacity": "8", "vehicle_types": ""}}, {"type": "Feature", "geometry": {"type": "Point", "coordinates": [6.1345434, 46.21099]}, "properties": {"name": "Rue de la Poterie 35", "provider": "donkey_ge", "capacity": "6", "vehicle_types": ""}}, {"type": "Feature", "geometry": {"type": "Point", "coordinates": [6.163124, 46.200157]}, "properties": {"name": "Salon 1+1", "provider": "donkey_ge", "capacity": "4", "vehicle_types": ""}}, {"type": "Feature", "geometry": {"type": "Point", "coordinates": [6.104674, 46.19169]}, "properties": {"name": "Rue de la Calle", "provider": "donkey_ge", "capacity": "2", "vehicle_types": ""}}, {"type": "Feature", "geometry": {"type": "Point", "coordinates": [6.156026, 46.194588]}, "properties": {"name": "Gaspard-Vallette", "provider": "donkey_ge", "capacity": "2", "vehicle_types": ""}}, {"type": "Feature", "geometry": {"type": "Point", "coordinates": [6.102288, 46.228104]}, "properties": {"name": "P-50", "provider": "donkey_ge", "capacity": "8", "vehicle_types": ""}}, {"type": "Feature", "geometry": {"type": "Point", "coordinates": [6.137513, 46.21093]}, "properties": {"name": "Rue du Midi", "provider": "donkey_ge", "capacity": "2", "vehicle_types": ""}}, {"type": "Feature", "geometry": {"type": "Point", "coordinates": [6.1308236, 46.21141]}, "properties": {"name": "Liotard 36 XXX", "provider": "donkey_ge", "capacity": "8", "vehicle_types": ""}}, {"type": "Feature", "geometry": {"type": "Point", "coordinates": [6.1465, 46.207767]}, "properties": {"name": "Bonivard", "provider": "donkey_ge", "capacity": "5", "vehicle_types": ""}}, {"type": "Feature", "geometry": {"type": "Point", "coordinates": [6.1401024, 46.20685]}, "properties": {"name": "Rue Necker 1", "provider": "donkey_ge", "capacity": "8", "vehicle_types": ""}}, {"type": "Feature", "geometry": {"type": "Point", "coordinates": [6.120705, 46.204285]}, "properties": {"name": "\u00c9cole de Cayla", "provider": "donkey_ge", "capacity": "6", "vehicle_types": ""}}, {"type": "Feature", "geometry": {"type": "Point", "coordinates": [6.147423, 46.19863]}, "properties": {"name": "Saint-L\u00e9ger 14", "provider": "donkey_ge", "capacity": "5", "vehicle_types": ""}}, {"type": "Feature", "geometry": {"type": "Point", "coordinates": [6.1410804, 46.191204]}, "properties": {"name": "Charles-Page 21", "provider": "donkey_ge", "capacity": "4", "vehicle_types": ""}}, {"type": "Feature", "geometry": {"type": "Point", "coordinates": [6.1040716, 46.192593]}, "properties": {"name": "Comte G\u00e9raud", "provider": "donkey_ge", "capacity": "3", "vehicle_types": ""}}, {"type": "Feature", "geometry": {"type": "Point", "coordinates": [6.139445, 46.201653]}, "properties": {"name": "Rue de l'Arquebuse", "provider": "donkey_ge", "capacity": "3", "vehicle_types": ""}}, {"type": "Feature", "geometry": {"type": "Point", "coordinates": [6.1478558, 46.19596]}, "properties": {"name": "HUG Tour 8", "provider": "donkey_ge", "capacity": "3", "vehicle_types": ""}}, {"type": "Feature", "geometry": {"type": "Point", "coordinates": [6.1447897, 46.208775]}, "properties": {"name": "Berne 2", "provider": "donkey_ge", "capacity": "4", "vehicle_types": ""}}, {"type": "Feature", "geometry": {"type": "Point", "coordinates": [6.112681, 46.208687]}, "properties": {"name": "Henri-Golay 17", "provider": "donkey_ge", "capacity": "6", "vehicle_types": ""}}, {"type": "Feature", "geometry": {"type": "Point", "coordinates": [6.140486, 46.186787]}, "properties": {"name": "Carouge Armes", "provider": "donkey_ge", "capacity": "6", "vehicle_types": ""}}, {"type": "Feature", "geometry": {"type": "Point", "coordinates": [6.124639, 46.17486]}, "properties": {"name": "Chemin des Pontets", "provider": "donkey_ge", "capacity": "5", "vehicle_types": ""}}, {"type": "Feature", "geometry": {"type": "Point", "coordinates": [6.136981, 46.19733]}, "properties": {"name": "Carl Vogt 66", "provider": "donkey_ge", "capacity": "8", "vehicle_types": ""}}, {"type": "Feature", "geometry": {"type": "Point", "coordinates": [6.1005354, 46.183365]}, "properties": {"name": "Onex", "provider": "donkey_ge", "capacity": "10", "vehicle_types": ""}}, {"type": "Feature", "geometry": {"type": "Point", "coordinates": [6.1502624, 46.1984]}, "properties": {"name": "Promenade du Pin", "provider": "donkey_ge", "capacity": "3", "vehicle_types": ""}}, {"type": "Feature", "geometry": {"type": "Point", "coordinates": [6.1462507, 46.197445]}, "properties": {"name": "Rue Galloix", "provider": "donkey_ge", "capacity": "2", "vehicle_types": ""}}, {"type": "Feature", "geometry": {"type": "Point", "coordinates": [6.07124, 46.229362]}, "properties": {"name": "Meyrinroule", "provider": "donkey_ge", "capacity": "20", "vehicle_types": ""}}, {"type": "Feature", "geometry": {"type": "Point", "coordinates": [6.15037, 46.2123]}, "properties": {"name": "L'Ancien-Port", "provider": "donkey_ge", "capacity": "5", "vehicle_types": ""}}, {"type": "Feature", "geometry": {"type": "Point", "coordinates": [6.150428, 46.19062]}, "properties": {"name": "Av. Beau-S\u00e9jour 9", "provider": "donkey_ge", "capacity": "3", "vehicle_types": ""}}, {"type": "Feature", "geometry": {"type": "Point", "coordinates": [6.0842123, 46.21526]}, "properties": {"name": "Mairie de Vernier", "provider": "donkey_ge", "capacity": "6", "vehicle_types": ""}}, {"type": "Feature", "geometry": {"type": "Point", "coordinates": [6.1505203, 46.196346]}, "properties": {"name": "Emile-Yung 1", "provider": "donkey_ge", "capacity": "3", "vehicle_types": ""}}, {"type": "Feature", "geometry": {"type": "Point", "coordinates": [6.136411, 46.203407]}, "properties": {"name": "Tir 1", "provider": "donkey_ge", "capacity": "4", "vehicle_types": ""}}, {"type": "Feature", "geometry": {"type": "Point", "coordinates": [6.1235895, 46.194958]}, "properties": {"name": "Ecole de Tivoli", "provider": "donkey_ge", "capacity": "6", "vehicle_types": ""}}, {"type": "Feature", "geometry": {"type": "Point", "coordinates": [6.1385245, 46.18605]}, "properties": {"name": "D\u00e9brid\u00e9e", "provider": "donkey_ge", "capacity": "4", "vehicle_types": ""}}, {"type": "Feature", "geometry": {"type": "Point", "coordinates": [6.1019073, 46.191525]}, "properties": {"name": "Grandes-Communes 37", "provider": "donkey_ge", "capacity": "3", "vehicle_types": ""}}, {"type": "Feature", "geometry": {"type": "Point", "coordinates": [6.163637, 46.190945]}, "properties": {"name": "Giovanni-Gambini", "provider": "donkey_ge", "capacity": "5", "vehicle_types": ""}}, {"type": "Feature", "geometry": {"type": "Point", "coordinates": [6.0755506, 46.222427]}, "properties": {"name": "Gare Meyrin Nord", "provider": "donkey_ge", "capacity": "5", "vehicle_types": ""}}, {"type": "Feature", "geometry": {"type": "Point", "coordinates": [6.1384177, 46.190197]}, "properties": {"name": "Rue Caroline 26", "provider": "donkey_ge", "capacity": "3", "vehicle_types": ""}}, {"type": "Feature", "geometry": {"type": "Point", "coordinates": [6.117196, 46.188038]}, "properties": {"name": "Chemin du Gu\u00e9 71", "provider": "donkey_ge", "capacity": "6", "vehicle_types": ""}}, {"type": "Feature", "geometry": {"type": "Point", "coordinates": [6.1618557, 46.202335]}, "properties": {"name": "Rue Maunoir 42", "provider": "donkey_ge", "capacity": "1", "vehicle_types": ""}}, {"type": "Feature", "geometry": {"type": "Point", "coordinates": [6.0937753, 46.22023]}, "properties": {"name": "Gare Vernier", "provider": "donkey_ge", "capacity": "5", "vehicle_types": ""}}, {"type": "Feature", "geometry": {"type": "Point", "coordinates": [6.121248, 46.20927]}, "properties": {"name": "Rue de Lyon 118", "provider": "donkey_ge", "capacity": "4", "vehicle_types": ""}}, {"type": "Feature", "geometry": {"type": "Point", "coordinates": [6.1453595, 46.203007]}, "properties": {"name": "Place des Trois-Perdrix", "provider": "donkey_ge", "capacity": "3", "vehicle_types": ""}}, {"type": "Feature", "geometry": {"type": "Point", "coordinates": [6.135536, 46.196014]}, "properties": {"name": "RTS", "provider": "donkey_ge", "capacity": "6", "vehicle_types": ""}}, {"type": "Feature", "geometry": {"type": "Point", "coordinates": [6.1516404, 46.19498]}, "properties": {"name": "Chemin Malombr\u00e9", "provider": "donkey_ge", "capacity": "6", "vehicle_types": ""}}, {"type": "Feature", "geometry": {"type": "Point", "coordinates": [6.129838, 46.221848]}, "properties": {"name": "Moillebeau", "provider": "donkey_ge", "capacity": "8", "vehicle_types": ""}}, {"type": "Feature", "geometry": {"type": "Point", "coordinates": [6.120371, 46.169548]}, "properties": {"name": "Plan les Ouates, Aviateurs", "provider": "donkey_ge", "capacity": "6", "vehicle_types": ""}}, {"type": "Feature", "geometry": {"type": "Point", "coordinates": [6.111713, 46.18782]}, "properties": {"name": "Route de Chancy", "provider": "donkey_ge", "capacity": "5", "vehicle_types": ""}}, {"type": "Feature", "geometry": {"type": "Point", "coordinates": [6.162401, 46.199844]}, "properties": {"name": "La Felicita", "provider": "donkey_ge", "capacity": "2", "vehicle_types": ""}}, {"type": "Feature", "geometry": {"type": "Point", "coordinates": [6.123952, 46.20749]}, "properties": {"name": "Aux Deux Avenues", "provider": "donkey_ge", "capacity": "8", "vehicle_types": ""}}, {"type": "Feature", "geometry": {"type": "Point", "coordinates": [6.156211, 46.194244]}, "properties": {"name": "Alfred Bertrand", "provider": "donkey_ge", "capacity": "6", "vehicle_types": ""}}, {"type": "Feature", "geometry": {"type": "Point", "coordinates": [6.1464734, 46.206776]}, "properties": {"name": "Pont des Bergues", "provider": "donkey_ge", "capacity": "4", "vehicle_types": ""}}, {"type": "Feature", "geometry": {"type": "Point", "coordinates": [6.143339, 46.20166]}, "properties": {"name": "Grand th\u00e9\u00e2tre", "provider": "donkey_ge", "capacity": "9", "vehicle_types": ""}}, {"type": "Feature", "geometry": {"type": "Point", "coordinates": [6.131722, 46.215755]}, "properties": {"name": "Grand-Pr\u00e9 72", "provider": "donkey_ge", "capacity": "8", "vehicle_types": ""}}, {"type": "Feature", "geometry": {"type": "Point", "coordinates": [6.125031, 46.209507]}, "properties": {"name": "Rue Guye", "provider": "donkey_ge", "capacity": "5", "vehicle_types": ""}}, {"type": "Feature", "geometry": {"type": "Point", "coordinates": [6.1428895, 46.206974]}, "properties": {"name": "Place de Grenus", "provider": "donkey_ge", "capacity": "8", "vehicle_types": ""}}, {"type": "Feature", "geometry": {"type": "Point", "coordinates": [6.1342363, 46.21916]}, "properties": {"name": "Rue Giuseppe Motta", "provider": "donkey_ge", "capacity": "6", "vehicle_types": ""}}, {"type": "Feature", "geometry": {"type": "Point", "coordinates": [6.165066, 46.204163]}, "properties": {"name": "Ernest-Hentsch 10", "provider": "donkey_ge", "capacity": "4", "vehicle_types": ""}}, {"type": "Feature", "geometry": {"type": "Point", "coordinates": [6.150396, 46.215145]}, "properties": {"name": "Ch\u00e2teau-Bruyant", "provider": "donkey_ge", "capacity": "5", "vehicle_types": ""}}, {"type": "Feature", "geometry": {"type": "Point", "coordinates": [6.1618123, 46.20298]}, "properties": {"name": "Rue du Nant 27", "provider": "donkey_ge", "capacity": "2", "vehicle_types": ""}}, {"type": "Feature", "geometry": {"type": "Point", "coordinates": [6.155491, 46.187435]}, "properties": {"name": "Cr\u00eats de Champel 24", "provider": "donkey_ge", "capacity": "4", "vehicle_types": ""}}, {"type": "Feature", "geometry": {"type": "Point", "coordinates": [6.1257625, 46.204426]},