station_name,lat_wgs84,lon_wgs84,daily_avg,workday_avg,nonworkday_avg,commuter_index,source,year,uic,curve_profile,pct_h00,pct_h01,pct_h02,pct_h03,pct_h04,pct_h05,pct_h06,pct_h07,pct_h08,pct_h09,pct_h10,pct_h11,pct_h12,pct_h13,pct_h14,pct_h15,pct_h16,pct_h17,pct_h18,pct_h19,pct_h20,pct_h21,pct_h22,pct_h23,peak_morning_pct,peak_evening_pct,off_peak_pct
"Vernier, Blandonnet",46.221936,6.097217,5000,,,1.3,estimated_tram_hub,2024,,moderate_commuter_major,0.004613,0.004527,0.00466,0.004764,0.005033,0.009974,0.035748,0.090455,0.119854,0.087057,0.04194,0.028445,0.030281,0.034285,0.04358,0.071531,0.109911,0.115289,0.086975,0.039989,0.014957,0.006783,0.004808,0.00454,0.333114,0.352164,0.314722
Lausanne,46.516795,6.629087,102800,112600.0,81000.0,1.39,sbb_passagierfrequenz_2024,2024,8501120.0,ic_hub_balanced,0.003986,0.003963,0.003926,0.003901,0.00446,0.008592,0.029645,0.075446,0.102108,0.07789,0.051132,0.05312,0.06166,0.064437,0.063678,0.073317,0.095964,0.093744,0.068393,0.033797,0.012889,0.005821,0.004128,0.004001,0.28509,0.291899,0.423011
Renens VD,46.537046,6.57892,25100,29800.0,14600.0,2.04,sbb_passagierfrequenz_2024,2024,8501118.0,ic_hub_commuter,0.004176,0.004149,0.004271,0.004256,0.004132,0.004453,0.025796,0.152872,0.099954,0.023551,0.034456,0.053841,0.069326,0.066443,0.052375,0.036033,0.045578,0.135621,0.130638,0.030285,0.005441,0.004138,0.004166,0.004048,0.302174,0.342121,0.355705
Genève,46.210228,6.142435,80600,89800.0,60100.0,1.49,sbb_passagierfrequenz_2024,2024,8501008.0,terminal_major,0.003711,0.003911,0.003841,0.003936,0.004437,0.010297,0.035958,0.085816,0.116547,0.083666,0.051267,0.050855,0.059892,0.063556,0.060963,0.06754,0.082089,0.08802,0.064979,0.03283,0.012457,0.00557,0.004024,0.00384,0.321986,0.267918,0.410096
Vevey,46.463002,6.84343,25900,28800.0,19500.0,1.48,sbb_passagierfrequenz_2024,2024,8501200.0,moderate_commuter_major,0.004203,0.004011,0.004011,0.004263,0.004658,0.010165,0.035028,0.084085,0.112772,0.08032,0.045354,0.04006,0.047706,0.050025,0.051978,0.069058,0.097271,0.108671,0.077676,0.038824,0.015135,0.006305,0.004384,0.004036,0.312205,0.322443,0.365352
Aigle,46.316856,6.96367,11200,11900.0,9400.0,1.27,sbb_passagierfrequenz_2024,2024,8501400.0,moderate_commuter_major,0.004326,0.004209,0.004181,0.004169,0.004663,0.009122,0.030524,0.080464,0.107723,0.085207,0.049385,0.043838,0.048468,0.052277,0.058264,0.074433,0.100408,0.102052,0.073397,0.035156,0.01323,0.005802,0.004354,0.004347,0.303918,0.311014,0.385068
Morges,46.511102,6.493958,22100,25200.0,15200.0,1.66,sbb_passagierfrequenz_2024,2024,8501037.0,moderate_commuter_major,0.00468,0.004503,0.004517,0.004735,0.004733,0.005924,0.032712,0.127427,0.130687,0.040945,0.027579,0.04066,0.050706,0.053166,0.040967,0.03773,0.07381,0.141642,0.113838,0.036603,0.008515,0.004741,0.00467,0.004513,0.331772,0.365892,0.302336
Montreux,46.435887,6.910425,18000,18100.0,17800.0,1.02,sbb_passagierfrequenz_2024,2024,8501300.0,balanced_moderate,0.004531,0.004517,0.004405,0.004473,0.00465,0.007971,0.025381,0.069468,0.107219,0.089414,0.054274,0.04422,0.052284,0.057381,0.061099,0.077528,0.103173,0.101179,0.067515,0.032373,0.011907,0.005845,0.004758,0.004436,0.291483,0.304239,0.404278
Nyon,46.384429,6.23595,18800,22200.0,11400.0,1.95,sbb_passagierfrequenz_2024,2024,8501030.0,moderate_commuter_major,0.00442,0.004586,0.004516,0.004405,0.004458,0.005788,0.033396,0.135169,0.126332,0.038905,0.027836,0.041002,0.050142,0.051598,0.041088,0.035632,0.076074,0.142283,0.11358,0.036761,0.008328,0.004664,0.004517,0.004517,0.333803,0.368698,0.297499
Genève-Eaux-Vives,46.201461,6.166549,8500,10100.0,5100.0,1.98,sbb_passagierfrequenz_2024,2024,8516273.0,moderate_commuter_small,0.005082,0.00489,0.005028,0.005081,0.005074,0.00659,0.03898,0.156074,0.141091,0.036654,0.018518,0.025367,0.031636,0.031324,0.026496,0.029233,0.077978,0.160526,0.128161,0.042299,0.0089,0.005272,0.004879,0.004867,0.3728,0.408963,0.218237
Genève-Champel,46.192208,6.153473,6100,7600.0,2700.0,2.81,sbb_passagierfrequenz_2024,2024,8516272.0,high_commuter_bedroom,0.004979,0.004854,0.00478,0.004821,0.005023,0.005392,0.030373,0.191678,0.133551,0.019171,0.016965,0.025063,0.030503,0.031541,0.025691,0.017977,0.03996,0.163254,0.175807,0.047114,0.006871,0.004805,0.005038,0.004789,0.374773,0.426135,0.199092
Lancy-Bachet,46.174342,6.12934,7000,8300.0,4100.0,2.02,sbb_passagierfrequenz_2024,2024,8517142.0,high_commuter_bedroom,0.004994,0.005187,0.004983,0.005152,0.005084,0.005493,0.033815,0.198884,0.124462,0.018507,0.018083,0.026199,0.032141,0.03162,0.026234,0.019487,0.044681,0.166804,0.167251,0.038865,0.006665,0.005239,0.005094,0.005077,0.375667,0.4176,0.206733
Lancy-Pont-Rouge,46.18596,6.124929,7700,10100.0,2500.0,4.04,sbb_passagierfrequenz_2024,2024,8516155.0,high_commuter_bedroom,0.004515,0.004757,0.004553,0.004598,0.004761,0.004788,0.025356,0.178429,0.148203,0.020955,0.016815,0.02397,0.029999,0.02948,0.024033,0.016498,0.031986,0.143833,0.199886,0.060712,0.008121,0.004608,0.004571,0.004575,0.372943,0.436417,0.19064
Palézieux,46.542766,6.83786,7600,8500.0,5700.0,1.49,sbb_passagierfrequenz_2024,2024,8504014.0,moderate_commuter_major,0.004582,0.004389,0.004471,0.004462,0.004986,0.01136,0.038966,0.096691,0.123348,0.084397,0.039855,0.026909,0.029052,0.032014,0.040249,0.068309,0.10587,0.115421,0.088899,0.043556,0.016329,0.006758,0.004711,0.004413,0.343402,0.353746,0.302852
"Aubonne, gare",46.493844,6.39294,5965,,,1.0,estimated_from_frequency_model,2024,,balanced_moderate,0.005036,0.004863,0.005038,0.005125,0.005175,0.009187,0.028605,0.078525,0.117545,0.093087,0.048863,0.03166,0.032331,0.037811,0.049905,0.07946,0.109784,0.114717,0.077954,0.035485,0.013114,0.006588,0.005035,0.005107,0.317762,0.33794,0.344298
Coppet,46.317405,6.187806,7700,8900.0,5000.0,1.78,sbb_passagierfrequenz_2024,2024,8501023.0,moderate_commuter_small,0.005084,0.004973,0.005108,0.005129,0.00496,0.006457,0.036405,0.151133,0.14597,0.038426,0.018851,0.02562,0.031121,0.0322,0.026202,0.029761,0.079154,0.160263,0.127094,0.041562,0.008991,0.005151,0.005194,0.005193,0.371933,0.408074,0.219993
Bussigny,46.547597,6.551814,5400,6400.0,3200.0,2.0,sbb_passagierfrequenz_2024,2024,8501117.0,high_commuter_bedroom,0.004962,0.005048,0.005129,0.005167,0.005019,0.005475,0.034256,0.19869,0.126846,0.017819,0.017739,0.026059,0.032779,0.032659,0.026474,0.019626,0.045143,0.1639,0.165476,0.039645,0.006613,0.005082,0.005214,0.00518,0.377611,0.414164,0.208225
Prilly-Malley,46.526697,6.602624,5900,6900.0,3500.0,1.97,sbb_passagierfrequenz_2024,2024,8518452.0,moderate_commuter_small,0.004861,0.004789,0.004706,0.004717,0.004801,0.006312,0.037298,0.153418,0.142471,0.037688,0.017747,0.025504,0.030761,0.030447,0.025376,0.027657,0.079971,0.162266,0.13237,0.04321,0.008909,0.004956,0.004931,0.004836,0.370874,0.417818,0.211308
Cully,46.488565,6.727141,2300,2500.0,1900.0,1.32,sbb_passagierfrequenz_2024,2024,8501124.0,moderate_commuter_small,0.004336,0.004366,0.004359,0.004386,0.005018,0.009959,0.035978,0.088949,0.119518,0.087436,0.0428,0.028503,0.030366,0.034481,0.043215,0.072093,0.110532,0.115165,0.086546,0.040919,0.015432,0.006573,0.004586,0.004485,0.331881,0.353161,0.314958
"Begnins, poste",46.440225,6.247701,2000,2200.0,1500.0,1.47,sbb_passagierfrequenz_2022,2022,8504483.0,moderate_commuter_small,0.004329,0.004314,0.004291,0.004215,0.004846,0.010784,0.039801,0.092114,0.120275,0.082948,0.040576,0.027291,0.029113,0.032872,0.042131,0.070674,0.104477,0.120208,0.088707,0.044035,0.016124,0.006806,0.004709,0.004357,0.335139,0.357428,0.307433
Genève-Sécheron,46.222452,6.144542,2200,2900.0,640.0,4.53,sbb_passagierfrequenz_2024,2024,8516283.0,high_commuter_bedroom,0.004492,0.004579,0.004447,0.004434,0.004486,0.00482,0.024174,0.179939,0.155509,0.021623,0.015894,0.023916,0.028606,0.029843,0.024225,0.016979,0.028905,0.137377,0.197532,0.066651,0.008207,0.004406,0.004437,0.00452,0.381245,0.430465,0.18829
Genthod-Bellevue,46.256747,6.153947,1700,2000.0,920.0,2.17,sbb_passagierfrequenz_2024,2024,8501021.0,high_commuter_bedroom,0.004883,0.004819,0.004856,0.004744,0.00477,0.005322,0.032443,0.194319,0.124694,0.018615,0.017612,0.026585,0.032346,0.032574,0.025522,0.018536,0.04279,0.171609,0.172537,0.039508,0.006323,0.004925,0.004885,0.004782,0.370071,0.426445,0.203484
Versoix,46.279741,6.165718,4400,5100.0,2800.0,1.82,sbb_passagierfrequenz_2024,2024,8501022.0,moderate_commuter_small,0.005081,0.004968,0.005014,0.004939,0.004886,0.006503,0.036334,0.147982,0.143093,0.038717,0.018869,0.026099,0.031377,0.031501,0.026754,0.02894,0.079835,0.159266,0.131824,0.044061,0.009167,0.005109,0.004837,0.004843,0.366126,0.414985,0.218889
Tannay,46.307659,6.181097,740,830.0,560.0,1.48,sbb_passagierfrequenz_2024,2024,8501015.0,moderate_commuter_small,0.00421,0.004029,0.004107,0.004307,0.004759,0.01098,0.040028,0.093649,0.124676,0.085719,0.038593,0.026807,0.028828,0.031886,0.042953,0.06753,0.107406,0.115925,0.087896,0.043854,0.016722,0.006682,0.004365,0.004088,0.344072,0.355081,0.300847
Mies,46.298503,6.167641,790,950.0,450.0,2.11,sbb_passagierfrequenz_2024,2024,8501014.0,high_commuter_bedroom,0.004786,0.004679,0.004658,0.004842,0.004887,0.005317,0.033152,0.193112,0.125796,0.018254,0.017887,0.026279,0.031612,0.032361,0.026044,0.01887,0.045962,0.169933,0.171191,0.039768,0.006556,0.004703,0.004661,0.00469,0.370314,0.426855,0.202831
Villeneuve VD,46.398369,6.926992,3800,4300.0,2800.0,1.54,sbb_passagierfrequenz_2024,2024,8501303.0,terminal_minor,0.005051,0.005058,0.005092,0.004977,0.00502,0.006689,0.038256,0.167146,0.164066,0.044368,0.019107,0.02696,0.031969,0.032309,0.027626,0.028213,0.07057,0.142522,0.113921,0.037301,0.008745,0.005149,0.00494,0.004944,0.413836,0.364314,0.22185
Bex,46.251462,7.000653,2700,3000.0,1800.0,1.67,sbb_passagierfrequenz_2024,2024,8501402.0,terminal_minor,0.004838,0.004902,0.004832,0.004796,0.004831,0.006638,0.040234,0.164474,0.162727,0.043975,0.018556,0.026363,0.032396,0.032144,0.02592,0.02762,0.070455,0.146056,0.115796,0.039041,0.008571,0.004911,0.005032,0.004889,0.411411,0.371349,0.21724
Gland,46.419998,6.269128,6900,8400.0,3600.0,2.33,sbb_passagierfrequenz_2024,2024,8501031.0,high_commuter_bedroom,0.005022,0.005046,0.005139,0.005174,0.005037,0.005467,0.032464,0.189875,0.130562,0.018408,0.017378,0.026053,0.032432,0.031115,0.025793,0.019302,0.041633,0.170369,0.169877,0.041897,0.006727,0.004962,0.005182,0.005085,0.37131,0.423776,0.204914
Allaman,46.47576,6.399683,5200,6200.0,3100.0,2.0,sbb_passagierfrequenz_2024,2024,8501035.0,high_commuter_bedroom,0.005006,0.005105,0.005031,0.005136,0.005126,0.005578,0.034153,0.19549,0.123058,0.017829,0.018409,0.025656,0.033335,0.033263,0.026335,0.019847,0.04399,0.168452,0.167668,0.0398,0.006559,0.005032,0.004969,0.005173,0.37053,0.41991,0.20956
Puidoux,46.493838,6.76568,2000,2400.0,1300.0,1.85,sbb_passagierfrequenz_2024,2024,8504012.0,moderate_commuter_small,0.004812,0.004723,0.004794,0.00484,0.004838,0.006349,0.038048,0.148419,0.144662,0.039017,0.018722,0.024626,0.031448,0.031048,0.026671,0.028609,0.079127,0.16161,0.133279,0.041465,0.008682,0.004784,0.00464,0.004788,0.370146,0.415481,0.214373
"Prangins, Les Abériaux",46.393015,6.254119,2000,2200.0,1500.0,1.47,sbb_passagierfrequenz_2022,2022,8504483.0,moderate_commuter_small,0.004319,0.004375,0.004262,0.004222,0.004984,0.011141,0.03952,0.093239,0.123058,0.085079,0.039831,0.026071,0.029021,0.033387,0.042431,0.068901,0.103298,0.11788,0.08777,0.045207,0.016147,0.006709,0.00471,0.004436,0.340896,0.354154,0.30495
Genève-Aéroport,46.232547,6.111969,16300,15800.0,17500.0,0.9,sbb_passagierfrequenz_2024,2024,8501026.0,balanced_moderate,0.004587,0.004622,0.004668,0.004505,0.004772,0.007575,0.024461,0.066627,0.103322,0.088936,0.055152,0.047324,0.053385,0.056328,0.063366,0.083662,0.103489,0.100035,0.066578,0.030099,0.011537,0.005627,0.004619,0.004726,0.283345,0.300201,0.416454
Rolle,46.462757,6.336387,4600,5400.0,2700.0,2.0,sbb_passagierfrequenz_2024,2024,8501033.0,high_commuter_bedroom,0.00506,0.005113,0.005161,0.004994,0.005115,0.005536,0.034343,0.19166,0.128482,0.018606,0.017828,0.026627,0.032873,0.033216,0.026095,0.019707,0.045145,0.169189,0.163509,0.039964,0.006462,0.005175,0.004976,0.005163,0.37309,0.417808,0.209102
Grandvaux,46.496948,6.722641,760,840.0,600.0,1.4,sbb_passagierfrequenz_2024,2024,8504011.0,moderate_commuter_small,0.00418,0.004206,0.004174,0.00426,0.004912,0.010846,0.037474,0.091788,0.119826,0.08621,0.040603,0.027173,0.02981,0.033295,0.043497,0.069996,0.10578,0.118421,0.088384,0.043594,0.016369,0.006525,0.004448,0.004229,0.335298,0.35618,0.308522
St-Prex,46.482324,6.455897,1600,1900.0,990.0,1.92,sbb_passagierfrequenz_2024,2024,8501036.0,moderate_commuter_small,0.004555,0.004781,0.004758,0.004755,0.004819,0.006179,0.037036,0.155286,0.147849,0.036752,0.01788,0.025051,0.030737,0.030998,0.026181,0.02782,0.080126,0.161088,0.12749,0.042918,0.008816,0.004923,0.004592,0.004609,0.376923,0.411622,0.211455
Lonay-Préverenges,46.523141,6.519527,290,340.0,190.0,1.79,sbb_passagierfrequenz_2024,2024,8501048.0,moderate_commuter_small,0.00444,0.004602,0.004428,0.004528,0.004623,0.005971,0.036716,0.154056,0.147182,0.038023,0.018548,0.025315,0.030698,0.03147,0.026019,0.028298,0.079715,0.16323,0.127645,0.042243,0.008622,0.004731,0.00446,0.004435,0.375978,0.412834,0.211188
Lausanne-Flon,46.520798,6.63033,35000,,,1.5,estimated_metro_hub,2024,,moderate_commuter_major,0.005384,0.00537,0.005443,0.005416,0.005428,0.006665,0.034372,0.149723,0.144285,0.040239,0.019679,0.026296,0.032771,0.031986,0.026705,0.029157,0.077212,0.160006,0.126201,0.041797,0.009307,0.005591,0.00541,0.005556,0.368619,0.405216,0.226165
La Conversion,46.513087,6.678307,1100,1200.0,710.0,1.69,sbb_passagierfrequenz_2024,2024,8504010.0,moderate_commuter_small,0.004751,0.004787,0.004702,0.004858,0.004919,0.006299,0.03521,0.146168,0.151656,0.040353,0.018365,0.026762,0.031929,0.031897,0.025997,0.029416,0.079588,0.15637,0.129635,0.042827,0.008735,0.004973,0.0049,0.004899,0.373388,0.408421,0.218191
La Tour-de-Peilz,46.455457,6.859523,2900,3200.0,2100.0,1.52,sbb_passagierfrequenz_2024,2024,8501201.0,moderate_commuter_small,0.005103,0.004857,0.004844,0.005105,0.004926,0.00618,0.033565,0.145252,0.145576,0.041397,0.019075,0.025862,0.032645,0.033294,0.027479,0.028751,0.077851,0.160682,0.130881,0.042642,0.008819,0.005094,0.005041,0.005078,0.36579,0.412055,0.222155
Burier,46.447889,6.877108,1700,2200.0,630.0,3.49,sbb_passagierfrequenz_2024,2024,8501202.0,high_commuter_bedroom,0.004574,0.004493,0.004499,0.004447,0.004625,0.004919,0.027237,0.190112,0.145152,0.020089,0.016361,0.024842,0.029437,0.030545,0.024706,0.017419,0.033903,0.150106,0.187398,0.054098,0.007159,0.004706,0.004628,0.004543,0.382589,0.425506,0.191905
Clarens,46.442736,6.895771,2400,2700.0,1700.0,1.59,sbb_passagierfrequenz_2024,2024,8501203.0,moderate_commuter_small,0.005089,0.004923,0.00485,0.00488,0.004964,0.006364,0.035646,0.151993,0.143586,0.040786,0.018575,0.025895,0.031477,0.032442,0.026419,0.029421,0.078789,0.160822,0.127479,0.041691,0.008844,0.005228,0.004958,0.004881,0.37201,0.40878,0.21921
"Founex, est",46.334766,6.19494,1149,,,1.0,estimated_from_frequency_model,2024,,balanced_small,0.004765,0.00479,0.004599,0.004763,0.005147,0.00873,0.02847,0.077319,0.118019,0.095306,0.049882,0.030858,0.032396,0.037632,0.050609,0.080633,0.112009,0.112441,0.076678,0.035944,0.013237,0.006307,0.004752,0.004713,0.319114,0.337073,0.343813
Rivaz,46.474211,6.784583,280,230.0,390.0,0.59,sbb_passagierfrequenz_2024,2024,8501126.0,tourism_dominated,0.004582,0.004454,0.004622,0.004747,0.005248,0.008313,0.016118,0.034635,0.059628,0.078111,0.085636,0.080775,0.077052,0.081572,0.093,0.100118,0.095316,0.071011,0.044998,0.022379,0.01165,0.006359,0.005135,0.004541,0.188491,0.233704,0.577805
"Perroy, Couronnette",46.463879,6.352911,921,,,1.0,estimated_from_frequency_model,2024,,balanced_small,0.004766,0.004588,0.004827,0.0046,0.004877,0.008705,0.028648,0.076866,0.116318,0.092624,0.049888,0.030992,0.033602,0.036911,0.051499,0.079541,0.114243,0.11562,0.075301,0.036551,0.012975,0.006356,0.005002,0.004697,0.314456,0.341716,0.343828
Epesses,46.489333,6.745157,220,160.0,340.0,0.47,sbb_passagierfrequenz_2024,2024,8501125.0,tourism_dominated,0.004651,0.004561,0.004586,0.004704,0.005168,0.007553,0.015523,0.031353,0.058048,0.079851,0.088046,0.080937,0.078011,0.08335,0.095364,0.099938,0.092183,0.070116,0.045244,0.023382,0.011411,0.006491,0.004925,0.004606,0.184775,0.230924,0.584301
Denges-Echandens,46.529129,6.54049,370,440.0,230.0,1.91,sbb_passagierfrequenz_2024,2024,8501045.0,moderate_commuter_small,0.004445,0.004372,0.004622,0.004577,0.004407,0.006103,0.038879,0.151524,0.145286,0.038071,0.01826,0.025329,0.030543,0.030402,0.026572,0.028153,0.08162,0.161263,0.131251,0.041791,0.008906,0.004721,0.004445,0.004456,0.37376,0.415925,0.210315
Bossière,46.509753,6.699305,150,160.0,130.0,1.23,sbb_passagierfrequenz_2024,2024,8504003.0,moderate_commuter_small,0.004086,0.004195,0.004218,0.004057,0.004511,0.009145,0.033298,0.087033,0.125451,0.090336,0.043542,0.029047,0.031093,0.035494,0.046673,0.073293,0.107574,0.117569,0.080547,0.039665,0.01473,0.006008,0.004286,0.004146,0.336118,0.345356,0.318526
Territet,46.426381,6.922695,330,360.0,280.0,1.29,sbb_passagierfrequenz_2024,2024,8501301.0,moderate_commuter_small,0.004173,0.004069,0.004296,0.004085,0.004755,0.009828,0.034065,0.089877,0.120737,0.090257,0.04288,0.027753,0.029912,0.034134,0.04384,0.072878,0.111484,0.115229,0.084291,0.041728,0.014868,0.006051,0.004539,0.004271,0.334936,0.352731,0.312333
"St-Saphorin (Lavaux), gare",46.472696,6.79809,260,230.0,330.0,0.7,sbb_passagierfrequenz_2024,2024,8501127.0,tourism_dominated,0.004668,0.004635,0.004592,0.004627,0.00518,0.007597,0.014941,0.031578,0.054774,0.080401,0.085831,0.084459,0.078452,0.083096,0.090889,0.103374,0.094016,0.071281,0.045238,0.022775,0.011508,0.006336,0.005126,0.004625,0.181695,0.233311,0.584994
